~Version Information Block
VERS .                 2.00:  CWLS LOG ASCII STANDARD - VERSION 2.00
WRAP .                   NO:  One line per depth step
~Well Information Block
#MNEM.UNIT        Data Type   Information
#---------- ----------------  -----------
STRT .M                 200:  START DEPTH
STOP .M           1985.0612:  STOP DEPTH
STEP .M                   0:  STEP
NULL .              -999.25:  NULL VALUE
COMP .                     :  COMPANY
WELL .          AUDACIOUS-5:  WELL
FLD  .                     :  FIELD
LOC  .     X = 730542.3900 Y = 8704837.7300:  LOCATION
PROV .                     :  PROVINCE
UWI  .                     :  UNIQUE WELL ID
SRVC .                     :  SERVICE COMPANY
DATE .                     :  LOG DATE
~Curve Information Block
#MNEM.UNIT         API CODE   Curve Description
#---------- ----------------  -----------------
DEPTH.M                    :  
BS   .IN                   :  
CAL  .IN                   :  
DRHO .G/C3                 :  
DTCO .US/F                 :  
DTSM .US/F                 :  
GR   .GAPI                 :  
P16H .OHMM                 :  
P22H .OHMM                 :  
P28H .OHMM                 :  
P34H .OHMM                 :  
P40H .OHMM                 :  
PEF  .B/E                  :  
RHOB .G/C3                 :  
ROP  .M/HR                 :  
TNPH .V/V                  :  
VEL  .F/S                  :  
~Parameter Information Block
#MNEM.UNIT            Value   Description
#---------- ----------------  -----------
SET  .                 WIRE:  
DIRECTIONAL_SET.                  DEV:  Preferred directional survey set
DRIL .M                1985:  
ELEV .M                24.7:  KELLY BUSHING ELEVATION
EPD  .M                   0:  PERMANENT DATUM ELEVATION
LATI .         11 42 29.883:  
LONG .         125 6 54.411:  
MEAS .                   RT:  
SURF .M                   0:  GROUND LEVEL ELEVATION
WELL_NAME.          AUDACIOUS-5:  WELL NAME
XOFFSET_BOTTOM.M     -19.32275334907:  
X_LO .M          730542.387:  
YOFFSET_BOTTOM.M     -6.744868576516:  
Y_LO .M         8704837.734:  
~Other Information Block
~A        DEPTH             BS            CAL           DRHO           DTCO           DTSM             GR           P16H           P22H           P28H           P34H           P40H            PEF           RHOB            ROP           TNPH            VEL 
# ...
      1624.9400        8.5000        8.6021      0.107400       88.0794     -999.2500       30.5097        2.3719        2.3402        2.3242        2.3268        2.3333        4.0719        2.5350       35.4372        0.2229    11353.3926
      1625.0924        8.5000        8.6259      0.112200       88.2627     -999.2500       30.1164        2.3981        2.3704        2.3594        2.3701        2.3868        4.0350        2.5394       35.9098        0.2153    11329.8135
      1625.2448        8.5000        8.6167      0.108200       89.0880     -999.2500       30.6885        2.3324        2.3265        2.3202        2.3245        2.3398        4.0308        2.5352       37.6081        0.2127    11224.8564
      1625.3972        8.5000        8.6114      0.106200       90.5754     -999.2500       32.3769        2.2269        2.2340        2.2328        2.2300        2.2334        3.9458        2.5327       37.8136        0.2175    11040.5254
      1625.5496        8.5000        8.5730      0.093000       91.3678     -999.2500       33.8867        2.1292        2.1212        2.1140        2.1102        2.1093        3.8904        2.5199       38.5643        0.2299    10944.7754
      1625.7020        8.5000        8.5642      0.090100       91.1847     -999.2500       34.1267        2.0729        2.0394        2.0208        2.0150        2.0085        3.8656        2.5235       39.4701        0.2413    10966.7520
      1625.8544        8.5000        8.5597      0.088900       90.4919     -999.2500       33.7501        2.0980        2.0600        2.0466        2.0456        2.0335        3.8607        2.5245       38.3364        0.2341    11050.7129
      1626.0068        8.5000        8.5739      0.096900       90.6192     -999.2500       33.6492        2.1022        2.0768        2.0703        2.0737        2.0687        3.9048        2.5372       36.6800        0.2273    11035.1885
      1626.1592        8.5000        8.5494      0.093000       92.2316     -999.2500       35.7764        2.0289        2.0184        2.0142        2.0216        2.0345        3.9016        2.5284       38.3864        0.2256    10842.2715
      1626.3116        8.5000        8.5677      0.096900       94.5921     -999.2500       37.8037        1.9067        1.8941        1.8852        1.8912        1.9091        3.8849        2.5257       40.0698        0.2485    10571.7070
      1626.4640        8.5000        8.6116      0.102200       95.8948     -999.2500       39.4183        1.7840        1.7758        1.7666        1.7664        1.7763        3.7706        2.5226       41.2548        0.2343    10428.0947
      1626.6164        8.5000        8.6540      0.109400       95.9329     -999.2500       38.9421        1.7089        1.7060        1.7036        1.7016        1.6993        3.7923        2.5318       40.6539        0.2422    10423.9521
      1626.7688        8.5000        8.6510      0.109500       96.4771     -999.2500       38.5547        1.6793        1.6757        1.6756        1.6764        1.6747        3.7853        2.5287       39.5342        0.2912    10365.1543
      1626.9212        8.5000        8.6049      0.104900       96.3853     -999.2500       38.3202        1.6343        1.6168        1.6093        1.6088        1.6056        3.8328        2.5229       40.1042        0.2932    10375.0264
      1627.0736        8.5000        8.5913      0.100500       96.0125     -999.2500       37.1768        1.6682        1.6390        1.6275        1.6282        1.6241        3.7536        2.5125       41.3921        0.2719    10415.3105
      1627.2260        8.5000        8.5813      0.098200       95.3555     -999.2500       35.2041        1.7665        1.7419        1.7333        1.7330        1.7256        3.7779        2.5160       42.6487        0.2595    10487.0723
      1627.3784        8.5000        8.6276      0.102700       95.0220     -999.2500       34.0683        1.8397        1.8304        1.8263        1.8245        1.8198        3.7779        2.5213       44.3922        0.2559    10523.8779
      1627.5308        8.5000        8.6397      0.106600       95.2274     -999.2500       35.4503        1.8249        1.8148        1.8071        1.8050        1.8060        3.7845        2.5184       45.9758        0.2549    10501.1787
      1627.6832        8.5000        8.6316      0.104700       95.3477     -999.2500       37.8743        1.8109        1.7845        1.7668        1.7645        1.7698        3.7265        2.5177       43.7154        0.2566    10487.9297
      1627.8356        8.5000        8.5812      0.093500       95.5562     -999.2500       38.8946        1.8570        1.8268        1.8073        1.8049        1.8100        3.7665        2.5139       38.7709        0.2610    10465.0459
      1627.9880        8.5000        8.5722      0.095900       95.9335     -999.2500       37.8378        1.8901        1.8763        1.8665        1.8687        1.8794        3.7818        2.5357       36.7392        0.2505    10423.8867
      1628.1404        8.5000        8.5501      0.091000       96.2039     -999.2500       37.0038        1.8318        1.8416        1.8485        1.8565        1.8685        3.8978        2.5332       36.2285        0.2598    10394.5889
      1628.2928        8.5000        8.5545      0.093200       96.7217     -999.2500       37.3804        1.7456        1.7521        1.7528        1.7523        1.7562        3.8834        2.5383       34.8184        0.2457    10338.9414
      1628.4452        8.5000        8.5736      0.095000       97.4738     -999.2500       37.9217        1.6833        1.6646        1.6508        1.6452        1.6434        3.8713        2.5273       33.0137        0.2868    10259.1670
      1628.5976        8.5000        8.6186      0.104300       96.9126     -999.2500       37.8734        1.7443        1.7084        1.6899        1.6866        1.6822        3.7629        2.5276       31.7877        0.2717    10318.5762
      1628.7500        8.5000        8.6490      0.113100       95.3760     -999.2500       36.9703        1.8563        1.8252        1.8154        1.8171        1.8101        3.7175        2.5232       30.7153        0.2707    10484.8184
      1628.9024        8.5000        8.6486      0.116400       94.3693     -999.2500       37.0713        1.9046        1.8907        1.8914        1.8973        1.8939        3.7194        2.5230       29.8447        0.2661    10596.6660
      1629.0548        8.5000        8.6273      0.116400       94.3844     -999.2500       38.4367        1.8759        1.8705        1.8671        1.8707        1.8794        3.7429        2.5210       28.5744        0.2746    10594.9717
      1629.2072        8.5000        8.6120      0.114800       94.9193     -999.2500       39.8402        1.7945        1.7846        1.7729        1.7704        1.7791        3.7699        2.5169       27.1028        0.2629    10535.2656
      1629.3596        8.5000        8.6066      0.111500       95.1320     -999.2500       39.5216        1.7882        1.7648        1.7504        1.7516        1.7601        3.7732        2.5131       23.8421        0.2718    10511.7100
      1629.5120        8.5000        8.6596      0.112800       95.0968     -999.2500       37.3751        1.8465        1.8223        1.8137        1.8202        1.8272        3.7462        2.5203       22.9501        0.2482    10515.6006
      1629.6644        8.5000        8.6526      0.107100       94.9147     -999.2500       36.6903        1.8188        1.8166        1.8148        1.8181        1.8261        3.7155        2.5199       22.4401        0.2590    10535.7754
      1629.8168        8.5000        8.6512      0.110000       94.5134     -999.2500       37.9582        1.7818        1.7793        1.7764        1.7741        1.7729        3.7004        2.5276       22.5926        0.2482    10580.5107
      1629.9692        8.5000        8.6223      0.109700       93.6862     -999.2500       39.2755        1.8346        1.8127        1.8006        1.7941        1.7841        3.7201        2.5241       23.5523        0.2626    10673.9307
