~Version Information Block
VERS .                 2.00:  CWLS LOG ASCII STANDARD - VERSION 2.00
WRAP .                   NO:  One line per depth step
~Well Information Block
#MNEM.UNIT        Data Type   Information
#---------- ----------------  -----------
STRT .M                 200:  START DEPTH
STOP .M           1985.0612:  STOP DEPTH
STEP .M                   0:  STEP
NULL .              -999.25:  NULL VALUE
COMP .                     :  COMPANY
WELL .          AUDACIOUS-5:  WELL
FLD  .                     :  FIELD
LOC  .     X = 730542.3900 Y = 8704837.7300:  LOCATION
PROV .                     :  PROVINCE
UWI  .                     :  UNIQUE WELL ID
SRVC .                     :  SERVICE COMPANY
DATE .                     :  LOG DATE
~Curve Information Block
#MNEM.UNIT         API CODE   Curve Description
#---------- ----------------  -----------------
DEPTH.M                    :  
BS   .IN                   :  
CAL  .IN                   :  
DRHO .G/C3                 :  
DTCO .US/F                 :  
DTSM .US/F                 :  
GR   .GAPI                 :  
P16H .OHMM                 :  
P22H .OHMM                 :  
P28H .OHMM                 :  
P34H .OHMM                 :  
P40H .OHMM                 :  
PEF  .B/E                  :  
RHOB .G/C3                 :  
ROP  .M/HR                 :  
TNPH .V/V                  :  
VEL  .F/S                  :  
~Parameter Information Block
#MNEM.UNIT            Value   Description
#---------- ----------------  -----------
SET  .                 WIRE:  
DIRECTIONAL_SET.                  DEV:  Preferred directional survey set
DRIL .M                1985:  
ELEV .M                24.7:  KELLY BUSHING ELEVATION
EPD  .M                   0:  PERMANENT DATUM ELEVATION
LATI .         11 42 29.883:  
LONG .         125 6 54.411:  
MEAS .                   RT:  
SURF .M                   0:  GROUND LEVEL ELEVATION
WELL_NAME.          AUDACIOUS-5:  WELL NAME
XOFFSET_BOTTOM.M     -19.32275334907:  
X_LO .M          730542.387:  
YOFFSET_BOTTOM.M     -6.744868576516:  
Y_LO .M         8704837.734:  
~Other Information Block
~A        DEPTH             BS            CAL           DRHO           DTCO           DTSM             GR           P16H           P22H           P28H           P34H           P40H            PEF           RHOB            ROP           TNPH            VEL 
# ...
      1505.7632        8.5000        8.5133      0.072100      110.8545     -999.2500       57.2717        1.2982        1.2897        1.2888        1.2895        1.2839        3.4573        2.4400       72.5085        0.3582     9020.8340
      1505.9156        8.5000        8.4884      0.066300      110.8971     -999.2500       57.1243        1.3259        1.3163        1.3145        1.3152        1.3106        3.4262        2.4405       72.1928        0.3382     9017.3682
      1506.0680        8.5000        8.4577      0.057900      110.8089     -999.2500       59.3671        1.3529        1.3402        1.3372        1.3390        1.3358        3.4102        2.4342       72.5204        0.3510     9024.5459
      1506.2204        8.5000        8.5280      0.078100      110.4465     -999.2500       60.8279        1.3991        1.3861        1.3817        1.3849        1.3873        3.4448        2.4606       74.5375        0.3547     9054.1572
      1506.3728        8.5000        8.5556      0.082400      109.8115     -999.2500       61.5044        1.4180        1.4138        1.4120        1.4176        1.4283        3.4673        2.4517       78.4188        0.3238     9106.5146
      1506.5252        8.5000        8.5200      0.072700      109.0551     -999.2500       60.4310        1.4163        1.4208        1.4241        1.4319        1.4457        3.4280        2.4442       81.4978        0.3432     9169.6768
      1506.6776        8.5000        8.4655      0.057500      108.7683     -999.2500       59.5777        1.3943        1.4050        1.4079        1.4106        1.4212        3.5010        2.4327       83.7908        0.3559     9193.8545
      1506.8300        8.5000        8.4499      0.055300      108.4997     -999.2500       58.9147        1.3539        1.3623        1.3647        1.3675        1.3769        3.6191        2.4503       85.3478        0.3452     9216.6152
      1506.9824        8.5000        8.4739      0.061800      107.9390     -999.2500       58.4810        1.3372        1.3381        1.3399        1.3443        1.3505        3.7266        2.4615       86.2487        0.3477     9264.4922
      1507.1348        8.5000        8.4855      0.065400      107.3012     -999.2500       59.8721        1.3541        1.3457        1.3469        1.3522        1.3519        3.7177        2.4636       87.6028        0.3230     9319.5605
      1507.2872        8.5000        8.4959      0.067200      107.2575     -999.2500       61.0181        1.3731        1.3617        1.3635        1.3701        1.3681        3.6781        2.4530       89.5440        0.3521     9323.3574
      1507.4396        8.5000        8.4985      0.068100      108.0325     -999.2500       62.0405        1.3996        1.3874        1.3897        1.3988        1.4003        3.5809        2.4470       89.5225        0.3277     9256.4736
      1507.5920        8.5000        8.5021      0.071000      108.7765     -999.2500       61.3974        1.4070        1.3978        1.4010        1.4102        1.4131        3.5013        2.4479       84.0365        0.3582     9193.1621
      1507.7444        8.5000        8.5439      0.080400      109.0141     -999.2500       60.8738        1.3995        1.3933        1.3938        1.3968        1.3952        3.4779        2.4556       80.2995        0.3419     9173.1250
      1507.8968        8.5000        8.5642      0.085200      109.0067     -999.2500       60.9022        1.3951        1.3868        1.3836        1.3842        1.3837        3.5001        2.4512       77.3819        0.3634     9173.7480
      1508.0492        8.5000        8.5686      0.084200      109.2154     -999.2500       61.5581        1.4060        1.3979        1.3928        1.3908        1.3891        3.4921        2.4408       72.5367        0.3390     9156.2178
      1508.2016        8.5000        8.5337      0.076800      109.4602     -999.2500       62.1679        1.4199        1.4133        1.4090        1.4079        1.4078        3.5073        2.4307       70.9506        0.3077     9135.7412
      1508.3540        8.5000        8.5136      0.070500      109.2269     -999.2500       62.3857        1.4270        1.4193        1.4157        1.4164        1.4174        3.5080        2.4281       71.9511        0.3510     9155.2539
      1508.5064        8.5000        8.5476      0.081300      108.8833     -999.2500       62.6373        1.4281        1.4195        1.4148        1.4155        1.4181        3.5433        2.4410       74.3229        0.3761     9184.1445
      1508.6588        8.5000        8.5664      0.086300      108.7941     -999.2500       61.8080        1.4240        1.4165        1.4128        1.4144        1.4174        3.4906        2.4400       72.7132        0.3393     9191.6748
      1508.8112        8.5000        8.6008      0.093200      109.1272     -999.2500       61.1453        1.4360        1.4275        1.4234        1.4237        1.4240        3.4617        2.4428       72.7302        0.3433     9163.6182
      1508.9636        8.5000        8.5334      0.080000      109.2298     -999.2500       60.0576        1.4387        1.4305        1.4276        1.4285        1.4279        3.4263        2.4293       72.2266        0.3494     9155.0107
      1509.1160        8.5000        8.5520      0.082900      109.3077     -999.2500       61.3829        1.4367        1.4281        1.4260        1.4270        1.4248        3.4560        2.4424       70.2505        0.3255     9148.4863
      1509.2684        8.5000        8.5321      0.079900      109.3752     -999.2500       61.9762        1.4443        1.4348        1.4314        1.4326        1.4326        3.4989        2.4465       67.4819        0.3919     9142.8408
      1509.4208        8.5000        8.5547      0.084200      109.2973     -999.2500       61.8682        1.4523        1.4434        1.4399        1.4404        1.4398        3.4966        2.4562       66.1047        0.3262     9149.3564
      1509.5732        8.5000        8.5237      0.075000      109.2915     -999.2500       60.3794        1.4468        1.4385        1.4357        1.4378        1.4394        3.4871        2.4444       64.1623        0.3408     9149.8428
      1509.7256        8.5000        8.5078      0.070900      109.6417     -999.2500       60.9690        1.4390        1.4329        1.4306        1.4327        1.4354        3.4341        2.4420       59.2568        0.3418     9120.6172
      1509.8780        8.5000        8.4861      0.067100      110.0774     -999.2500       62.7348        1.4238        1.4177        1.4148        1.4161        1.4185        3.4609        2.4405       57.1523        0.3484     9084.5166
      1510.0304        8.5000        8.4741      0.061300      110.2933     -999.2500       63.6105        1.3996        1.3948        1.3923        1.3925        1.3930        3.4915        2.4401       56.3838        0.3234     9066.7344
      1510.1828        8.5000        8.4689      0.059300      110.4355     -999.2500       61.9629        1.3910        1.3834        1.3811        1.3813        1.3789        3.5355        2.4441       53.3119        0.3410     9055.0596
      1510.3352        8.5000        8.4868      0.064500      110.2123     -999.2500       60.0560        1.3997        1.3931        1.3934        1.3949        1.3905        3.5545        2.4484       47.9584        0.3605     9073.3975
      1510.4876        8.5000        8.5096      0.069700      110.1024     -999.2500       59.4592        1.4098        1.4057        1.4060        1.4062        1.4018        3.5603        2.4458       42.8108        0.3553     9082.4541
      1510.6400        8.5000        8.5021      0.068600      110.0832     -999.2500       61.0112        1.4217        1.4137        1.4102        1.4086        1.4044        3.5437        2.4396       41.2597        0.3700     9084.0381
      1510.7924        8.5000        8.4803      0.062400      109.8286     -999.2500       62.0369        1.4279        1.4161        1.4105        1.4094        1.4066        3.5523        2.4274       40.3558        0.3610     9105.0967
