~Version Information Block
VERS .                 2.00:  CWLS LOG ASCII STANDARD - VERSION 2.00
WRAP .                   NO:  One line per depth step
~Well Information Block
#MNEM.UNIT        Data Type   Information
#---------- ----------------  -----------
STRT .M                 200:  START DEPTH
STOP .M           1985.0612:  STOP DEPTH
STEP .M                   0:  STEP
NULL .              -999.25:  NULL VALUE
COMP .                     :  COMPANY
WELL .          AUDACIOUS-5:  WELL
FLD  .                     :  FIELD
LOC  .     X = 730542.3900 Y = 8704837.7300:  LOCATION
PROV .                     :  PROVINCE
UWI  .                     :  UNIQUE WELL ID
SRVC .                     :  SERVICE COMPANY
DATE .                     :  LOG DATE
~Curve Information Block
#MNEM.UNIT         API CODE   Curve Description
#---------- ----------------  -----------------
DEPTH.M                    :  
BS   .IN                   :  
CAL  .IN                   :  
DRHO .G/C3                 :  
DTCO .US/F                 :  
DTSM .US/F                 :  
GR   .GAPI                 :  
P16H .OHMM                 :  
P22H .OHMM                 :  
P28H .OHMM                 :  
P34H .OHMM                 :  
P40H .OHMM                 :  
PEF  .B/E                  :  
RHOB .G/C3                 :  
ROP  .M/HR                 :  
TNPH .V/V                  :  
VEL  .F/S                  :  
~Parameter Information Block
#MNEM.UNIT            Value   Description
#---------- ----------------  -----------
SET  .                 WIRE:  
DIRECTIONAL_SET.                  DEV:  Preferred directional survey set
DRIL .M                1985:  
ELEV .M                24.7:  KELLY BUSHING ELEVATION
EPD  .M                   0:  PERMANENT DATUM ELEVATION
LATI .         11 42 29.883:  
LONG .         125 6 54.411:  
MEAS .                   RT:  
SURF .M                   0:  GROUND LEVEL ELEVATION
WELL_NAME.          AUDACIOUS-5:  WELL NAME
XOFFSET_BOTTOM.M     -19.32275334907:  
X_LO .M          730542.387:  
YOFFSET_BOTTOM.M     -6.744868576516:  
Y_LO .M         8704837.734:  
~Other Information Block
~A        DEPTH             BS            CAL           DRHO           DTCO           DTSM             GR           P16H           P22H           P28H           P34H           P40H            PEF           RHOB            ROP           TNPH            VEL 
# ...
       676.7072       12.2500     -999.2500   -999.250000       88.4489     -999.2500       23.4100        3.1487        3.1575        3.1454        3.1312        3.1352     -999.2500     -999.2500       44.9707     -999.2500    11305.9629
       676.8596       12.2500     -999.2500   -999.250000       85.7217     -999.2500       22.7181        3.1847        3.1968        3.1870        3.1748        3.1814     -999.2500     -999.2500       44.1461     -999.2500    11665.6572
       677.0120       12.2500     -999.2500   -999.250000       83.3129     -999.2500       24.1275        3.2582        3.2689        3.2649        3.2593        3.2659     -999.2500     -999.2500       43.8529     -999.2500    12002.9434
       677.1644       12.2500     -999.2500   -999.250000       85.2552     -999.2500       24.9090        3.3994        3.3988        3.4036        3.4099        3.4123     -999.2500     -999.2500       44.8267     -999.2500    11729.4893
       677.3168       12.2500     -999.2500   -999.250000       87.6085     -999.2500       24.5620        3.3413        3.3341        3.3332        3.3330        3.3274     -999.2500     -999.2500       43.3257     -999.2500    11414.4180
       677.4692       12.2500     -999.2500   -999.250000       87.1591     -999.2500       23.7994        3.2150        3.1972        3.1712        3.1462        3.1303     -999.2500     -999.2500       40.4651     -999.2500    11473.2705
       677.6216       12.2500     -999.2500   -999.250000       87.8791     -999.2500       23.6627        3.1249        3.1307        3.1091        3.0851        3.0853     -999.2500     -999.2500       39.9925     -999.2500    11379.2705
       677.7740       12.2500     -999.2500   -999.250000       89.5100     -999.2500       24.2601        3.1446        3.2018        3.2045        3.1836        3.1919     -999.2500     -999.2500       40.5351     -999.2500    11171.9355
       677.9264       12.2500     -999.2500   -999.250000       89.5693     -999.2500       25.3821        3.3375        3.3985        3.4102        3.3884        3.3809     -999.2500     -999.2500       41.5013     -999.2500    11164.5400
       678.0788       12.2500     -999.2500   -999.250000       90.1388     -999.2500       25.9599        3.4587        3.4475        3.4517        3.4580        3.4517     -999.2500     -999.2500       41.7439     -999.2500    11094.0020
       678.2312       12.2500     -999.2500   -999.250000       90.5106     -999.2500       24.7211        3.2736        3.2115        3.2041        3.2221        3.2133     -999.2500     -999.2500       42.2035     -999.2500    11048.4297
       678.3836       12.2500     -999.2500   -999.250000       91.2490     -999.2500       22.7113        2.9972        2.9570        2.9403        2.9390        2.9304     -999.2500     -999.2500       40.7297     -999.2500    10959.0244
       678.5360       12.2500     -999.2500   -999.250000       91.9890     -999.2500       22.0633        2.8871        2.8864        2.8752        2.8607        2.8531     -999.2500     -999.2500       37.9841     -999.2500    10870.8652
       678.6884       12.2500     -999.2500   -999.250000       90.6625     -999.2500       22.4875        2.8473        2.8996        2.8975        2.8708        2.8725     -999.2500     -999.2500       38.0485     -999.2500    11029.9189
       678.8408       12.2500     -999.2500   -999.250000       90.8185     -999.2500       22.6050        2.9153        3.0072        3.0151        2.9878        3.0079     -999.2500     -999.2500       37.9652     -999.2500    11010.9727
       678.9932       12.2500     -999.2500   -999.250000       91.9224     -999.2500       21.7028        3.0626        3.1172        3.1134        3.0971        3.1256     -999.2500     -999.2500       38.4146     -999.2500    10878.7412
       679.1456       12.2500     -999.2500   -999.250000       92.9667     -999.2500       21.2314        3.1797        3.1794        3.1590        3.1582        3.1971     -999.2500     -999.2500       36.4590     -999.2500    10756.5400
       679.2980       12.2500     -999.2500   -999.250000       91.6553     -999.2500       21.8021        3.1816        3.1398        3.1049        3.1027        3.1286     -999.2500     -999.2500       33.3578     -999.2500    10910.4443
       679.4504       12.2500     -999.2500   -999.250000       89.4491     -999.2500       23.1991        3.0692        3.0044        2.9620        2.9452        2.9357     -999.2500     -999.2500       30.9718     -999.2500    11179.5430
       679.6028       12.2500     -999.2500   -999.250000       84.9570     -999.2500       23.8753        2.9466        2.9078        2.8767        2.8507        2.8242     -999.2500     -999.2500       29.5669     -999.2500    11770.6602
       679.7552       12.2500     -999.2500   -999.250000       85.5855     -999.2500       22.7449        2.8748        2.8721        2.8584        2.8288        2.7942     -999.2500     -999.2500       29.4198     -999.2500    11684.2217
       679.9076       12.2500     -999.2500   -999.250000       86.4764     -999.2500       20.8913        2.8339        2.8370        2.8288        2.8040        2.7739     -999.2500     -999.2500       30.8011     -999.2500    11563.8486
       680.0600       12.2500     -999.2500   -999.250000       84.6368     -999.2500       20.0273        2.7416        2.7391        2.7351        2.7276        2.7179     -999.2500     -999.2500       31.4786     -999.2500    11815.1914
       680.2124       12.2500     -999.2500   -999.250000       82.9680     -999.2500       21.2677        2.6900        2.6929        2.7000        2.7053        2.7045     -999.2500     -999.2500       31.2643     -999.2500    12052.8389
       680.3648       12.2500     -999.2500   -999.250000       83.1228     -999.2500       23.1083        2.6940        2.6905        2.7015        2.7108        2.7039     -999.2500     -999.2500       30.9005     -999.2500    12030.3936
       680.5172       12.2500     -999.2500   -999.250000       85.5618     -999.2500       24.8082        2.7195        2.7189        2.7235        2.7261        2.7215     -999.2500     -999.2500       30.5735     -999.2500    11687.4590
       680.6696       12.2500     -999.2500   -999.250000       86.8540     -999.2500       26.0416        2.8310        2.8442        2.8301        2.8146        2.8239     -999.2500     -999.2500       31.1834     -999.2500    11513.5752
       680.8220       12.2500     -999.2500   -999.250000       86.5772     -999.2500       26.4035        3.0039        3.0370        3.0141        2.9905        3.0195     -999.2500     -999.2500       32.7354     -999.2500    11550.3848
       680.9744       12.2500     -999.2500   -999.250000       86.3529     -999.2500       26.1675        3.2398        3.2869        3.2609        3.2339        3.2757     -999.2500     -999.2500       32.5406     -999.2500    11580.3877
       681.1268       12.2500     -999.2500   -999.250000       85.4342     -999.2500       25.7315        3.5695        3.6148        3.5846        3.5634        3.6228     -999.2500     -999.2500       31.5312     -999.2500    11704.9150
       681.2792       12.2500     -999.2500   -999.250000       86.5047     -999.2500       25.9154        3.9600        3.9519        3.9145        3.8995        3.9354     -999.2500     -999.2500       55.8105     -999.2500    11560.0654
       681.4316       12.2500     -999.2500   -999.250000       89.5980     -999.2500       25.4094        4.2011        4.0975        4.0546        4.0480        4.0255     -999.2500     -999.2500      108.5901     -999.2500    11160.9639
       681.5840       12.2500     -999.2500   -999.250000       92.6885     -999.2500       23.3740        3.8641        3.7329        3.7029        3.7001        3.6356     -999.2500     -999.2500      109.0983     -999.2500    10788.8252
       681.7364       12.2500     -999.2500   -999.250000       92.5579     -999.2500       21.8021        3.3712        3.2946        3.2800        3.2719        3.2144     -999.2500     -999.2500       87.0431     -999.2500    10804.0479
