~Version Information Block
VERS .                 2.00:  CWLS LOG ASCII STANDARD - VERSION 2.00
WRAP .                   NO:  One line per depth step
~Well Information Block
#MNEM.UNIT        Data Type   Information
#---------- ----------------  -----------
STRT .M                 200:  START DEPTH
STOP .M           1985.0612:  STOP DEPTH
STEP .M                   0:  STEP
NULL .              -999.25:  NULL VALUE
COMP .                     :  COMPANY
WELL .          AUDACIOUS-5:  WELL
FLD  .                     :  FIELD
LOC  .     X = 730542.3900 Y = 8704837.7300:  LOCATION
PROV .                     :  PROVINCE
UWI  .                     :  UNIQUE WELL ID
SRVC .                     :  SERVICE COMPANY
DATE .                     :  LOG DATE
~Curve Information Block
#MNEM.UNIT         API CODE   Curve Description
#---------- ----------------  -----------------
DEPTH.M                    :  
BS   .IN                   :  
CAL  .IN                   :  
DRHO .G/C3                 :  
DTCO .US/F                 :  
DTSM .US/F                 :  
GR   .GAPI                 :  
P16H .OHMM                 :  
P22H .OHMM                 :  
P28H .OHMM                 :  
P34H .OHMM                 :  
P40H .OHMM                 :  
PEF  .B/E                  :  
RHOB .G/C3                 :  
ROP  .M/HR                 :  
TNPH .V/V                  :  
VEL  .F/S                  :  
~Parameter Information Block
#MNEM.UNIT            Value   Description
#---------- ----------------  -----------
SET  .                 WIRE:  
DIRECTIONAL_SET.                  DEV:  Preferred directional survey set
DRIL .M                1985:  
ELEV .M                24.7:  KELLY BUSHING ELEVATION
EPD  .M                   0:  PERMANENT DATUM ELEVATION
LATI .         11 42 29.883:  
LONG .         125 6 54.411:  
MEAS .                   RT:  
SURF .M                   0:  GROUND LEVEL ELEVATION
WELL_NAME.          AUDACIOUS-5:  WELL NAME
XOFFSET_BOTTOM.M     -19.32275334907:  
X_LO .M          730542.387:  
YOFFSET_BOTTOM.M     -6.744868576516:  
Y_LO .M         8704837.734:  
~Other Information Block
~A        DEPTH             BS            CAL           DRHO           DTCO           DTSM             GR           P16H           P22H           P28H           P34H           P40H            PEF           RHOB            ROP           TNPH            VEL 
# ...
      1744.1168        8.5000        8.4542      0.063300       88.5263     -999.2500       37.4247        2.4207        2.4109        2.4041        2.4249        2.4725        5.0629        2.5599       14.7120        0.2106    11296.0781
      1744.2692        8.5000        8.4728      0.069900       90.6418     -999.2500       40.6821        2.0957        2.1360        2.1493        2.1633        2.2066        5.0634        2.5602       14.7015        0.2444    11032.4375
      1744.4216        8.5000        8.4776      0.070700       92.5583     -999.2500       44.6345        1.9895        2.0283        2.0361        2.0303        2.0417        4.8583        2.5481       14.7681        0.2441    10804.0020
      1744.5740        8.5000        8.4664      0.065000       95.3620     -999.2500       46.5701        1.9705        1.9898        1.9911        1.9822        1.9816        4.7532        2.5323       15.2821        0.2439    10486.3574
      1744.7264        8.5000        8.4326      0.054000       96.1438     -999.2500       45.6190        1.9882        1.9525        1.9386        1.9328        1.9146        4.7501        2.5200       16.6252        0.2467    10401.0869
      1744.8788        8.5000        8.4173      0.047900       93.3395     -999.2500       42.5034        2.1819        2.1193        2.1135        2.1323        2.1209        4.8646        2.5273       17.3077        0.2623    10713.5781
      1745.0312        8.5000        8.4130      0.051500       89.2601     -999.2500       35.9378        2.4191        2.3709        2.3816        2.4158        2.4150        5.0242        2.5504       17.9602        0.2312    11203.2139
      1745.1836        8.5000        8.4210      0.054500       87.0514     -999.2500       32.5167        2.6295        2.6251        2.6422        2.6730        2.6960        5.3449        2.5686       19.2507        0.1969    11487.4658
      1745.3360        8.5000        8.4175      0.055300       88.4452     -999.2500       32.8611        2.4621        2.4818        2.4927        2.5128        2.5514        5.6973        2.5740       19.8449        0.2165    11306.4365
      1745.4884        8.5000        8.3892      0.045600       90.1330     -999.2500       37.2774        2.2350        2.2380        2.2293        2.2261        2.2403        6.1165        2.5585       22.2981        0.1925    11094.7148
      1745.6408        8.5000        8.3833      0.042100       90.5592     -999.2500       38.3446        2.3270        2.3121        2.2939        2.2771        2.2649        6.1022        2.5574       25.0190        0.2065    11042.5010
      1745.7932        8.5000        8.3660      0.033400       88.7258     -999.2500       36.2045        2.3752        2.3511        2.3368        2.3180        2.2861        5.9521        2.5489       24.8980        0.2111    11270.6787
      1745.9456        8.5000        8.3751      0.036800       85.8959     -999.2500       33.4016        2.4520        2.4002        2.3934        2.3815        2.3232        5.9017        2.5565       23.2163        0.2110    11642.0000
      1746.0980        8.5000        8.4196      0.049000       84.3097     -999.2500       32.2165        2.4819        2.3874        2.3655        2.3717        2.3397        5.9232        2.5614       21.0978        0.2014    11861.0312
      1746.2504        8.5000        8.4532      0.059200       83.2205     -999.2500       32.1294        2.4365        2.3271        2.2884        2.2966        2.2889        5.7032        2.5515       19.5939        0.1992    12016.2705
      1746.4028        8.5000        8.4695      0.062300       83.6189     -999.2500       32.0961        2.2191        2.1794        2.1630        2.1630        2.1588        5.6591        2.5282       19.5472        0.2051    11959.0195
      1746.5552        8.5000        8.4377      0.053600       89.0498     -999.2500       40.2486        1.8355        1.8599        1.8632        1.8670        1.8938        6.3957        2.5056       19.0930        0.2088    11229.6719
      1746.7076        8.5000        8.4077      0.043500      100.0900     -999.2500       55.1083        1.3197        1.3380        1.3282        1.3375        1.3969        7.7513        2.4768       18.4120        0.2901     9991.0088
      1746.8600        8.5000        8.4331      0.051100      111.0711     -999.2500       73.5681        0.9612        0.9589        0.9491        0.9545        0.9836        8.2797        2.4687       18.7700        0.2962     9003.2422
      1747.0124        8.5000        8.4609      0.060600      117.1289     -999.2500       82.8754        0.9028        0.9050        0.9041        0.9064        0.9154        6.7888        2.4529       19.6816        0.3249     8537.6025
      1747.1648        8.5000        8.4930      0.070500      118.3101     -999.2500       85.1985        0.8923        0.9082        0.9174        0.9191        0.9205        5.7085        2.4484       20.4179        0.3954     8452.3643
      1747.3172        8.5000        8.4526      0.057600      117.3227     -999.2500       81.7326        0.8523        0.8555        0.8593        0.8572        0.8489        5.9371        2.4261       20.9879        0.3989     8523.5000
      1747.4696        8.5000        8.4462      0.057800      113.2457     -999.2500       72.4300        0.9283        0.9008        0.8983        0.8981        0.8761        6.2913        2.4343       23.7073        0.3345     8830.3574
      1747.6220        8.5000        8.4696      0.067700      103.1796     -999.2500       58.1308        1.3686        1.3048        1.2976        1.3042        1.2711        6.2465        2.4672       28.4976        0.3070     9691.8379
      1747.7744        8.5000        8.5287      0.088800       92.4650     -999.2500       44.2344        1.9794        1.9202        1.9214        1.9388        1.9139        5.2400        2.5217       32.2266        0.2779    10814.9033
      1747.9268        8.5000        8.5802      0.099000       87.1975     -999.2500       35.6856        2.4111        2.4041        2.4164        2.4325        2.4322        4.9186        2.5612       35.1707        0.2151    11468.2188
      1748.0792        8.5000        8.5896      0.105600       84.1085     -999.2500       33.6770        2.5513        2.5692        2.5492        2.5287        2.5443        4.9180        2.5893       36.1648        0.2049    11889.4053
      1748.2316        8.5000        8.6342      0.117100       84.3442     -999.2500       35.3381        2.4602        2.4698        2.4261        2.3939        2.4242        4.8721        2.6055       39.0745        0.2053    11856.1797
      1748.3840        8.5000        8.6436      0.117200       86.6194     -999.2500       37.6502        2.3655        2.3446        2.2939        2.2642        2.2840        4.8572        2.5922       40.5441        0.2055    11544.7578
      1748.5364        8.5000        8.6307      0.111000       89.1472     -999.2500       38.6929        2.3378        2.3149        2.2902        2.2834        2.2971        4.7585        2.5785       39.7599        0.2140    11217.4023
      1748.6888        8.5000        8.5902      0.099400       90.1681     -999.2500       39.2753        2.2450        2.2590        2.2686        2.2849        2.3128        4.7946        2.5644       38.9509        0.2218    11090.3965
      1748.8412        8.5000        8.5528      0.089700       91.3927     -999.2500       38.6811        2.1317        2.1499        2.1647        2.1891        2.2272        4.8169        2.5569       37.0093        0.2206    10941.7930
      1748.9936        8.5000        8.5396      0.090500       92.5963     -999.2500       37.7285        2.0328        2.0504        2.0635        2.0786        2.1006        4.8321        2.5556       34.4827        0.2143    10799.5674
      1749.1460        8.5000        8.5429      0.088800       93.3857     -999.2500       37.6455        1.8658        1.8694        1.8767        1.8771        1.8672        4.8575        2.5488       29.7767        0.2254    10708.2783
