~Version Information Block
VERS .                 2.00:  CWLS LOG ASCII STANDARD - VERSION 2.00
WRAP .                   NO:  One line per depth step
~Well Information Block
#MNEM.UNIT        Data Type   Information
#---------- ----------------  -----------
STRT .M                 200:  START DEPTH
STOP .M           1985.0612:  STOP DEPTH
STEP .M                   0:  STEP
NULL .              -999.25:  NULL VALUE
COMP .                     :  COMPANY
WELL .          AUDACIOUS-5:  WELL
FLD  .                     :  FIELD
LOC  .     X = 730542.3900 Y = 8704837.7300:  LOCATION
PROV .                     :  PROVINCE
UWI  .                     :  UNIQUE WELL ID
SRVC .                     :  SERVICE COMPANY
DATE .                     :  LOG DATE
~Curve Information Block
#MNEM.UNIT         API CODE   Curve Description
#---------- ----------------  -----------------
DEPTH.M                    :  
BS   .IN                   :  
CAL  .IN                   :  
DRHO .G/C3                 :  
DTCO .US/F                 :  
DTSM .US/F                 :  
GR   .GAPI                 :  
P16H .OHMM                 :  
P22H .OHMM                 :  
P28H .OHMM                 :  
P34H .OHMM                 :  
P40H .OHMM                 :  
PEF  .B/E                  :  
RHOB .G/C3                 :  
ROP  .M/HR                 :  
TNPH .V/V                  :  
VEL  .F/S                  :  
~Parameter Information Block
#MNEM.UNIT            Value   Description
#---------- ----------------  -----------
SET  .                 WIRE:  
DIRECTIONAL_SET.                  DEV:  Preferred directional survey set
DRIL .M                1985:  
ELEV .M                24.7:  KELLY BUSHING ELEVATION
EPD  .M                   0:  PERMANENT DATUM ELEVATION
LATI .         11 42 29.883:  
LONG .         125 6 54.411:  
MEAS .                   RT:  
SURF .M                   0:  GROUND LEVEL ELEVATION
WELL_NAME.          AUDACIOUS-5:  WELL NAME
XOFFSET_BOTTOM.M     -19.32275334907:  
X_LO .M          730542.387:  
YOFFSET_BOTTOM.M     -6.744868576516:  
Y_LO .M         8704837.734:  
~Other Information Block
~A        DEPTH             BS            CAL           DRHO           DTCO           DTSM             GR           P16H           P22H           P28H           P34H           P40H            PEF           RHOB            ROP           TNPH            VEL 
# ...
      1034.2376       12.2500     -999.2500   -999.250000       72.5010      150.3373       14.5363        3.0566        3.0770        3.0988        3.0974        3.0713     -999.2500     -999.2500       17.4801     -999.2500    13792.9131
      1034.3900       12.2500     -999.2500   -999.250000       73.6615      149.4298       15.6111        2.9929        3.0460        3.0657        3.0550        3.0459     -999.2500     -999.2500       16.6667     -999.2500    13575.6133
      1034.5424       12.2500     -999.2500   -999.250000       74.2120      150.0056       15.9089        2.9689        3.0359        3.0406        3.0271        3.0551     -999.2500     -999.2500       16.1387     -999.2500    13474.9102
      1034.6948       12.2500     -999.2500   -999.250000       73.8232      148.0199       14.0420        3.0632        3.1355        3.1378        3.1306        3.1829     -999.2500     -999.2500       15.5200     -999.2500    13545.8779
      1034.8472       12.2500     -999.2500   -999.250000       73.4204      146.2142       12.9085        3.1591        3.2123        3.2176        3.2219        3.2727     -999.2500     -999.2500       14.5621     -999.2500    13620.1924
      1034.9996       12.2500     -999.2500   -999.250000       72.3244      147.4631       12.7201        3.2036        3.2146        3.2179        3.2253        3.2440     -999.2500     -999.2500       13.6479     -999.2500    13826.5918
      1035.1520       12.2500     -999.2500   -999.250000       71.0637      147.1183       13.1467        3.1273        3.1169        3.1258        3.1427        3.1487     -999.2500     -999.2500       13.3103     -999.2500    14071.8828
      1035.3044       12.2500     -999.2500   -999.250000       70.4756      145.1618       12.7422        2.9801        2.9686        2.9853        2.9968        2.9754     -999.2500     -999.2500       12.9092     -999.2500    14189.3076
      1035.4568       12.2500     -999.2500   -999.250000       70.9049      145.1823       12.9623        2.8273        2.8290        2.8442        2.8379        2.7973     -999.2500     -999.2500       12.8990     -999.2500    14103.3975
      1035.6092       12.2500     -999.2500   -999.250000       70.9215      147.9802       13.5700        2.7375        2.7659        2.7806        2.7708        2.7498     -999.2500     -999.2500       12.8788     -999.2500    14100.0967
      1035.7616       12.2500     -999.2500   -999.250000       70.9887      149.8082       13.9126        2.7938        2.8622        2.8767        2.8670        2.8857     -999.2500     -999.2500       12.5302     -999.2500    14086.7490
      1035.9140       12.2500     -999.2500   -999.250000       71.9616      151.5822       13.2194        3.0597        3.1575        3.1799        3.1801        3.2323     -999.2500     -999.2500       11.8097     -999.2500    13896.2998
      1036.0664       12.2500     -999.2500   -999.250000       70.8069      151.4183       13.0027        3.3746        3.4497        3.4732        3.4857        3.5383     -999.2500     -999.2500       11.8122     -999.2500    14122.9170
      1036.2188       12.2500     -999.2500   -999.250000       69.3784      150.6344       13.9525        3.5844        3.6163        3.6442        3.6714        3.7010     -999.2500     -999.2500       12.1078     -999.2500    14413.7070
      1036.3712       12.2500     -999.2500   -999.250000       68.7194      152.2855       15.0466        3.5934        3.6144        3.6550        3.6885        3.6941     -999.2500     -999.2500       12.1595     -999.2500    14551.9316
      1036.5236       12.2500     -999.2500   -999.250000       68.2005      147.7835       15.4185        3.5833        3.6397        3.7049        3.7294        3.7027     -999.2500     -999.2500       11.6819     -999.2500    14662.6494
      1036.6760       12.2500     -999.2500   -999.250000       67.5035      138.2171       14.5077        3.7443        3.8524        3.9275        3.9323        3.8989     -999.2500     -999.2500       11.8119     -999.2500    14814.0459
      1036.8284       12.2500     -999.2500   -999.250000       66.6421      134.9309       14.2387        3.9422        4.0605        4.1268        4.1285        4.1165     -999.2500     -999.2500       11.6395     -999.2500    15005.5303
      1036.9808       12.2500     -999.2500   -999.250000       66.0512      137.3265       14.0374        4.0691        4.2203        4.2814        4.2927        4.3432     -999.2500     -999.2500       11.2313     -999.2500    15139.7705
      1037.1332       12.2500     -999.2500   -999.250000       65.7326      139.6071       14.3748        4.2902        4.4859        4.5656        4.5951        4.6909     -999.2500     -999.2500       10.6812     -999.2500    15213.1523
      1037.2856       12.2500     -999.2500   -999.250000       66.6602      145.0810       13.9112        4.6624        4.8512        4.9203        4.9457        5.0437     -999.2500     -999.2500       10.1550     -999.2500    15001.4551
      1037.4380       12.2500     -999.2500   -999.250000       68.8099      147.3353       13.0054        4.8800        5.0590        5.1281        5.1365        5.1848     -999.2500     -999.2500        9.6540     -999.2500    14532.7930
      1037.5904       12.2500     -999.2500   -999.250000       69.6287      151.5564       12.9299        4.8668        5.0548        5.1551        5.1639        5.1604     -999.2500     -999.2500        9.3689     -999.2500    14361.8936
      1037.7428       12.2500     -999.2500   -999.250000       69.5664      151.5572       13.4751        4.9305        5.1076        5.2244        5.2272        5.1712     -999.2500     -999.2500        9.1308     -999.2500    14374.7559
      1037.8952       12.2500     -999.2500   -999.250000       68.6139      147.3740       14.2783        4.9557        5.0756        5.1729        5.1676        5.0816     -999.2500     -999.2500        8.9356     -999.2500    14574.3066
      1038.0476       12.2500     -999.2500   -999.250000       68.1856      145.5135       14.4235        4.6536        4.7705        4.8574        4.8672        4.8278     -999.2500     -999.2500        8.1802     -999.2500    14665.8535
      1038.2000       12.2500     -999.2500   -999.250000       68.2176      146.1356       13.9278        4.4523        4.5646        4.6288        4.6429        4.6525     -999.2500     -999.2500        7.2620     -999.2500    14658.9736
      1038.3524       12.2500     -999.2500   -999.250000       68.4673      146.5658       12.6622        4.0640        4.1999        4.2922        4.3508        4.4195     -999.2500     -999.2500        6.1554     -999.2500    14605.5127
      1038.5048       12.2500     -999.2500   -999.250000       68.5906      145.2677       11.6917        3.7898        3.9724        4.0919        4.1603        4.2439     -999.2500     -999.2500        5.6642     -999.2500    14579.2578
      1038.6572       12.2500     -999.2500   -999.250000       68.4755      144.0124       11.5340        3.8737        4.0695        4.1875        4.2410        4.3120     -999.2500     -999.2500        5.2673     -999.2500    14603.7627
      1038.8096       12.2500     -999.2500   -999.250000       68.1905      142.1239       12.5532        4.1516        4.4056        4.5371        4.5557        4.5903     -999.2500     -999.2500        5.2160     -999.2500    14664.7998
      1038.9620       12.2500     -999.2500   -999.250000       67.9575      142.2356       13.8429        4.4831        4.6935        4.8027        4.8125        4.8242     -999.2500     -999.2500        5.2968     -999.2500    14715.0801
      1039.1144       12.2500     -999.2500   -999.250000       67.8637      144.3185       14.3588        4.5056        4.6742        4.7691        4.7972        4.8310     -999.2500     -999.2500        5.3303     -999.2500    14735.4180
      1039.2668       12.2500     -999.2500   -999.250000       68.0496      144.1712       14.3210        4.5693        4.6576        4.7061        4.7309        4.7692     -999.2500     -999.2500        5.3939     -999.2500    14695.1641
