~Version Information Block
VERS .                 2.00:  CWLS LOG ASCII STANDARD - VERSION 2.00
WRAP .                   NO:  One line per depth step
~Well Information Block
#MNEM.UNIT        Data Type   Information
#---------- ----------------  -----------
STRT .M                 200:  START DEPTH
STOP .M           1985.0612:  STOP DEPTH
STEP .M                   0:  STEP
NULL .              -999.25:  NULL VALUE
COMP .                     :  COMPANY
WELL .          AUDACIOUS-5:  WELL
FLD  .                     :  FIELD
LOC  .     X = 730542.3900 Y = 8704837.7300:  LOCATION
PROV .                     :  PROVINCE
UWI  .                     :  UNIQUE WELL ID
SRVC .                     :  SERVICE COMPANY
DATE .                     :  LOG DATE
~Curve Information Block
#MNEM.UNIT         API CODE   Curve Description
#---------- ----------------  -----------------
DEPTH.M                    :  
BS   .IN                   :  
CAL  .IN                   :  
DRHO .G/C3                 :  
DTCO .US/F                 :  
DTSM .US/F                 :  
GR   .GAPI                 :  
P16H .OHMM                 :  
P22H .OHMM                 :  
P28H .OHMM                 :  
P34H .OHMM                 :  
P40H .OHMM                 :  
PEF  .B/E                  :  
RHOB .G/C3                 :  
ROP  .M/HR                 :  
TNPH .V/V                  :  
VEL  .F/S                  :  
~Parameter Information Block
#MNEM.UNIT            Value   Description
#---------- ----------------  -----------
SET  .                 WIRE:  
DIRECTIONAL_SET.                  DEV:  Preferred directional survey set
DRIL .M                1985:  
ELEV .M                24.7:  KELLY BUSHING ELEVATION
EPD  .M                   0:  PERMANENT DATUM ELEVATION
LATI .         11 42 29.883:  
LONG .         125 6 54.411:  
MEAS .                   RT:  
SURF .M                   0:  GROUND LEVEL ELEVATION
WELL_NAME.          AUDACIOUS-5:  WELL NAME
XOFFSET_BOTTOM.M     -19.32275334907:  
X_LO .M          730542.387:  
YOFFSET_BOTTOM.M     -6.744868576516:  
Y_LO .M         8704837.734:  
~Other Information Block
~A        DEPTH             BS            CAL           DRHO           DTCO           DTSM             GR           P16H           P22H           P28H           P34H           P40H            PEF           RHOB            ROP           TNPH            VEL 
# ...
       795.8840       12.2500     -999.2500   -999.250000       88.6187     -999.2500       25.1392        2.9028        2.9041        2.9016        2.8906        2.8748     -999.2500     -999.2500       18.3095     -999.2500    11284.2998
       796.0364       12.2500     -999.2500   -999.250000       88.5974     -999.2500       25.1851        2.9037        2.9003        2.8921        2.8818        2.8740     -999.2500     -999.2500       18.9256     -999.2500    11287.0137
       796.1888       12.2500     -999.2500   -999.250000       90.4226     -999.2500       25.2282        2.8940        2.8920        2.8793        2.8665        2.8640     -999.2500     -999.2500       19.6731     -999.2500    11059.1826
       796.3412       12.2500     -999.2500   -999.250000       92.3452     -999.2500       24.5333        2.9038        2.9101        2.8941        2.8823        2.8966     -999.2500     -999.2500       21.1657     -999.2500    10828.9336
       796.4936       12.2500     -999.2500   -999.250000       92.9638     -999.2500       22.9594        2.9775        2.9936        2.9839        2.9782        3.0014     -999.2500     -999.2500       24.8745     -999.2500    10756.8750
       796.6460       12.2500     -999.2500   -999.250000       91.3440     -999.2500       21.2010        3.0732        3.0784        3.0699        3.0660        3.0801     -999.2500     -999.2500       28.0513     -999.2500    10947.6260
       796.7984       12.2500     -999.2500   -999.250000       89.3861     -999.2500       20.9540        3.0981        3.0930        3.0828        3.0772        3.0812     -999.2500     -999.2500       29.5802     -999.2500    11187.4219
       796.9508       12.2500     -999.2500   -999.250000       88.0763     -999.2500       22.0558        3.0688        3.0604        3.0567        3.0544        3.0488     -999.2500     -999.2500       28.3454     -999.2500    11353.7920
       797.1032       12.2500     -999.2500   -999.250000       87.4706     -999.2500       23.5519        2.9832        2.9743        2.9833        2.9902        2.9774     -999.2500     -999.2500       28.8754     -999.2500    11432.4131
       797.2556       12.2500     -999.2500   -999.250000       87.9916     -999.2500       24.3787        2.9064        2.9097        2.9252        2.9324        2.9191     -999.2500     -999.2500       47.6363     -999.2500    11364.7207
       797.4080       12.2500     -999.2500   -999.250000       87.2681     -999.2500       24.8404        2.8481        2.8608        2.8748        2.8804        2.8759     -999.2500     -999.2500       98.0161     -999.2500    11458.9414
       797.5604       12.2500     -999.2500   -999.250000       83.9465     -999.2500       25.1763        2.7810        2.8066        2.8208        2.8295        2.8437     -999.2500     -999.2500      124.1662     -999.2500    11912.3486
       797.7128       12.2500     -999.2500   -999.250000       81.0809     -999.2500       25.6082        2.7751        2.8174        2.8311        2.8392        2.8699     -999.2500     -999.2500      119.8103     -999.2500    12333.3604
       797.8652       12.2500     -999.2500   -999.250000       79.6826     -999.2500       25.4931        2.8350        2.8870        2.8939        2.8959        2.9377     -999.2500     -999.2500      106.7778     -999.2500    12549.7910
       798.0176       12.2500     -999.2500   -999.250000       79.9705     -999.2500       24.3239        2.9421        2.9922        2.9850        2.9789        3.0299     -999.2500     -999.2500       94.0445     -999.2500    12504.6113
       798.1700       12.2500     -999.2500   -999.250000       83.1634     -999.2500       22.9546        3.1238        3.1603        3.1368        3.1230        3.1769     -999.2500     -999.2500       82.7622     -999.2500    12024.5205
       798.3224       12.2500     -999.2500   -999.250000       85.4152     -999.2500       23.1848        3.3666        3.3628        3.3148        3.2892        3.3285     -999.2500     -999.2500       68.6512     -999.2500    11707.5186
       798.4748       12.2500     -999.2500   -999.250000       85.0030     -999.2500       24.9705        3.5993        3.5456        3.4711        3.4269        3.4338     -999.2500     -999.2500       58.6503     -999.2500    11764.2910
       798.6272       12.2500     -999.2500   -999.250000       84.5593     -999.2500       26.8173        3.7347        3.6460        3.5618        3.5114        3.4940     -999.2500     -999.2500       50.4778     -999.2500    11826.0195
       798.7796       12.2500     -999.2500   -999.250000       82.0926     -999.2500       27.6932        3.8143        3.7031        3.6159        3.5627        3.5266     -999.2500     -999.2500       38.7710     -999.2500    12181.3662
       798.9320       12.2500     -999.2500   -999.250000       80.7073     -999.2500       27.4630        3.8769        3.7638        3.6763        3.6101        3.5476     -999.2500     -999.2500       26.9881     -999.2500    12390.4531
       799.0844       12.2500     -999.2500   -999.250000       80.2671     -999.2500       26.8191        3.9426        3.8217        3.7339        3.6685        3.6021     -999.2500     -999.2500       22.9973     -999.2500    12458.4053
       799.2368       12.2500     -999.2500   -999.250000       80.1818     -999.2500       25.2532        3.8751        3.7778        3.7104        3.6538        3.5860     -999.2500     -999.2500       20.8936     -999.2500    12471.6582
       799.3892       12.2500     -999.2500   -999.250000       80.3618     -999.2500       23.5504        3.8238        3.7513        3.6923        3.6419        3.5913     -999.2500     -999.2500       19.8468     -999.2500    12443.7227
       799.5416       12.2500     -999.2500   -999.250000       80.5805     -999.2500       22.1680        3.8492        3.7901        3.7339        3.6886        3.6536     -999.2500     -999.2500       19.2335     -999.2500    12409.9502
       799.6940       12.2500     -999.2500   -999.250000       81.1962     -999.2500       22.1568        3.8396        3.7981        3.7416        3.6861        3.6475     -999.2500     -999.2500       18.8831     -999.2500    12315.8477
       799.8464       12.2500     -999.2500   -999.250000       82.3464     -999.2500       23.8081        3.8107        3.7852        3.7352        3.6810        3.6466     -999.2500     -999.2500       18.8111     -999.2500    12143.8223
       799.9988       12.2500     -999.2500   -999.250000       83.4389     -999.2500       26.7780        3.8284        3.8030        3.7585        3.7141        3.6887     -999.2500     -999.2500       18.6552     -999.2500    11984.8174
       800.1512       12.2500     -999.2500   -999.250000       84.4659     -999.2500       28.7919        3.8254        3.8013        3.7578        3.7107        3.6788     -999.2500     -999.2500       19.1156     -999.2500    11839.0977
       800.3036       12.2500     -999.2500   -999.250000       84.9394     -999.2500       28.4483        3.8116        3.7857        3.7414        3.6908        3.6528     -999.2500     -999.2500       21.0406     -999.2500    11773.0996
       800.4560       12.2500     -999.2500   -999.250000       85.1863     -999.2500       27.0335        3.8478        3.8013        3.7524        3.7073        3.6701     -999.2500     -999.2500       23.6906     -999.2500    11738.9766
       800.6084       12.2500     -999.2500   -999.250000       85.5667     -999.2500       26.9311        3.8426        3.7803        3.7342        3.6997        3.6644     -999.2500     -999.2500       27.9540     -999.2500    11686.7891
       800.7608       12.2500     -999.2500   -999.250000       86.2557     -999.2500       29.2143        3.7793        3.7146        3.6763        3.6550        3.6279     -999.2500     -999.2500       30.1366     -999.2500    11593.4365
       800.9132       12.2500     -999.2500   -999.250000       86.3439     -999.2500       31.8927        3.6626        3.5980        3.5731        3.5705        3.5544     -999.2500     -999.2500       31.0664     -999.2500    11581.5938
