~Version Information Block
VERS .                 2.00:  CWLS LOG ASCII STANDARD - VERSION 2.00
WRAP .                   NO:  One line per depth step
~Well Information Block
#MNEM.UNIT        Data Type   Information
#---------- ----------------  -----------
STRT .M                 200:  START DEPTH
STOP .M           1985.0612:  STOP DEPTH
STEP .M                   0:  STEP
NULL .              -999.25:  NULL VALUE
COMP .                     :  COMPANY
WELL .          AUDACIOUS-5:  WELL
FLD  .                     :  FIELD
LOC  .     X = 730542.3900 Y = 8704837.7300:  LOCATION
PROV .                     :  PROVINCE
UWI  .                     :  UNIQUE WELL ID
SRVC .                     :  SERVICE COMPANY
DATE .                     :  LOG DATE
~Curve Information Block
#MNEM.UNIT         API CODE   Curve Description
#---------- ----------------  -----------------
DEPTH.M                    :  
BS   .IN                   :  
CAL  .IN                   :  
DRHO .G/C3                 :  
DTCO .US/F                 :  
DTSM .US/F                 :  
GR   .GAPI                 :  
P16H .OHMM                 :  
P22H .OHMM                 :  
P28H .OHMM                 :  
P34H .OHMM                 :  
P40H .OHMM                 :  
PEF  .B/E                  :  
RHOB .G/C3                 :  
ROP  .M/HR                 :  
TNPH .V/V                  :  
VEL  .F/S                  :  
~Parameter Information Block
#MNEM.UNIT            Value   Description
#---------- ----------------  -----------
SET  .                 WIRE:  
DIRECTIONAL_SET.                  DEV:  Preferred directional survey set
DRIL .M                1985:  
ELEV .M                24.7:  KELLY BUSHING ELEVATION
EPD  .M                   0:  PERMANENT DATUM ELEVATION
LATI .         11 42 29.883:  
LONG .         125 6 54.411:  
MEAS .                   RT:  
SURF .M                   0:  GROUND LEVEL ELEVATION
WELL_NAME.          AUDACIOUS-5:  WELL NAME
XOFFSET_BOTTOM.M     -19.32275334907:  
X_LO .M          730542.387:  
YOFFSET_BOTTOM.M     -6.744868576516:  
Y_LO .M         8704837.734:  
~Other Information Block
~A        DEPTH             BS            CAL           DRHO           DTCO           DTSM             GR           P16H           P22H           P28H           P34H           P40H            PEF           RHOB            ROP           TNPH            VEL 
# ...
      1267.4096       12.2500     -999.2500   -999.250000       84.1122      167.5509       21.0211        1.4672        1.4680        1.4681        1.4649        1.4590     -999.2500     -999.2500       17.8919     -999.2500    11888.8818
      1267.5620       12.2500     -999.2500   -999.250000       85.6611      164.7539       18.9271        1.3566        1.3683        1.3717        1.3726        1.3796     -999.2500     -999.2500       29.4476     -999.2500    11673.9102
      1267.7144       12.2500     -999.2500   -999.250000       85.8489      161.0995       18.0304        1.4375        1.4775        1.4938        1.4974        1.5132     -999.2500     -999.2500       43.7303     -999.2500    11648.3730
      1267.8668       12.2500     -999.2500   -999.250000       84.6311      158.7834       18.5706        1.5971        1.6301        1.6405        1.6409        1.6548     -999.2500     -999.2500       35.7753     -999.2500    11815.9863
      1268.0192       12.2500     -999.2500   -999.250000       83.1913      156.9217       19.6403        1.6318        1.6415        1.6361        1.6309        1.6411     -999.2500     -999.2500       34.3399     -999.2500    12020.4883
      1268.1716       12.2500     -999.2500   -999.250000       82.6597      156.0936       21.9166        1.6666        1.6689        1.6563        1.6500        1.6650     -999.2500     -999.2500       34.0602     -999.2500    12097.7939
      1268.3240       12.2500     -999.2500   -999.250000       81.0184      158.7709       23.3766        1.8051        1.8210        1.8147        1.8098        1.8283     -999.2500     -999.2500       32.8394     -999.2500    12342.8750
      1268.4764       12.2500     -999.2500   -999.250000       79.6338      166.0148       24.2916        1.9751        2.0019        2.0144        2.0143        2.0160     -999.2500     -999.2500       31.7847     -999.2500    12557.4824
      1268.6288       12.2500     -999.2500   -999.250000       80.7362      172.3632       24.3730        1.9815        1.9838        1.9948        1.9973        1.9827     -999.2500     -999.2500       29.5675     -999.2500    12386.0176
      1268.7812       12.2500     -999.2500   -999.250000       82.3459      172.2364       24.3291        1.8185        1.7924        1.7864        1.7860        1.7720     -999.2500     -999.2500       28.8321     -999.2500    12143.8955
      1268.9336       12.2500     -999.2500   -999.250000       84.4892      172.1837       24.2821        1.6351        1.6210        1.6117        1.6059        1.5990     -999.2500     -999.2500       27.7162     -999.2500    11835.8330
      1269.0860       12.2500     -999.2500   -999.250000       86.2554      170.3908       23.7431        1.5131        1.5234        1.5236        1.5151        1.5080     -999.2500     -999.2500       25.1982     -999.2500    11593.4766
      1269.2384       12.2500     -999.2500   -999.250000       87.9074      170.6360       23.6522        1.4536        1.4920        1.5081        1.5070        1.5124     -999.2500     -999.2500       23.7112     -999.2500    11375.6064
      1269.3908       12.2500     -999.2500   -999.250000       87.7579      170.8965       24.1003        1.5643        1.6156        1.6449        1.6562        1.6737     -999.2500     -999.2500       21.9172     -999.2500    11394.9863
      1269.5432       12.2500     -999.2500   -999.250000       87.7843      170.8447       23.9731        1.5965        1.6134        1.6371        1.6574        1.6673     -999.2500     -999.2500       19.9558     -999.2500    11391.5586
      1269.6956       12.2500     -999.2500   -999.250000       87.9798      170.5621       22.5983        1.4723        1.4712        1.4784        1.4905        1.4992     -999.2500     -999.2500       18.3642     -999.2500    11366.2461
      1269.8480       12.2500     -999.2500   -999.250000       83.8645      167.5818       20.1862        1.5237        1.5297        1.5220        1.5160        1.5253     -999.2500     -999.2500       17.3223     -999.2500    11923.9961
      1270.0004       12.2500     -999.2500   -999.250000       79.6898      165.0652       19.5272        1.6144        1.6396        1.6331        1.6170        1.6227     -999.2500     -999.2500       16.6916     -999.2500    12548.6582
      1270.1528       12.2500     -999.2500   -999.250000       77.8655      162.8355       21.1168        1.7110        1.7653        1.7706        1.7591        1.7801     -999.2500     -999.2500       16.5800     -999.2500    12842.6582
      1270.3052       12.2500     -999.2500   -999.250000       77.4897      159.7622       23.8151        2.0161        2.0819        2.1004        2.1060        2.1465     -999.2500     -999.2500       16.1441     -999.2500    12904.9404
      1270.4576       12.2500     -999.2500   -999.250000       77.4495      159.8851       25.1822        2.2387        2.2728        2.2944        2.3219        2.3688     -999.2500     -999.2500       15.7826     -999.2500    12911.6387
      1270.6100       12.2500     -999.2500   -999.250000       76.9993      164.1037       24.6435        2.3109        2.2970        2.3012        2.3234        2.3469     -999.2500     -999.2500       15.7526     -999.2500    12987.1318
      1270.7624       12.2500     -999.2500   -999.250000       78.2417      166.4311       23.7480        2.1208        2.0622        2.0377        2.0286        2.0039     -999.2500     -999.2500       16.0479     -999.2500    12780.9082
      1270.9148       12.2500     -999.2500   -999.250000       80.9455      168.6385       23.2555        1.7473        1.7040        1.6756        1.6549        1.6294     -999.2500     -999.2500       16.5790     -999.2500    12353.9912
      1271.0672       12.2500     -999.2500   -999.250000       80.0645      173.1202       22.6119        1.5821        1.5907        1.5800        1.5612        1.5539     -999.2500     -999.2500       17.7555     -999.2500    12489.9297
      1271.2196       12.2500     -999.2500   -999.250000       77.8295      174.4742       23.1309        1.6265        1.6826        1.7065        1.7055        1.7132     -999.2500     -999.2500       18.6139     -999.2500    12848.5986
      1271.3720       12.2500     -999.2500   -999.250000       80.5705      174.7308       23.4018        1.6663        1.7248        1.7777        1.8037        1.8094     -999.2500     -999.2500       19.2398     -999.2500    12411.4902
      1271.5244       12.2500     -999.2500   -999.250000       85.3664      173.2131       24.4294        1.5544        1.5849        1.6315        1.6644        1.6668     -999.2500     -999.2500       20.0484     -999.2500    11714.2109
      1271.6768       12.2500     -999.2500   -999.250000       90.0951      169.4819       24.3679        1.4275        1.4260        1.4451        1.4644        1.4631     -999.2500     -999.2500       19.9934     -999.2500    11099.3828
      1271.8292       12.2500     -999.2500   -999.250000       88.5729      167.4342       23.9093        1.3266        1.3064        1.2995        1.2991        1.2924     -999.2500     -999.2500       21.1228     -999.2500    11290.1348
      1271.9816       12.2500     -999.2500   -999.250000       81.9136      161.1660       23.0272        1.2525        1.2466        1.2365        1.2263        1.2205     -999.2500     -999.2500       23.0484     -999.2500    12207.9854
      1272.1340       12.2500     -999.2500   -999.250000       78.5749      157.2547       23.8416        1.2992        1.3464        1.3491        1.3355        1.3528     -999.2500     -999.2500       24.1693     -999.2500    12726.7109
      1272.2864       12.2500     -999.2500   -999.250000       78.8118      159.4780       26.1531        1.6628        1.7670        1.7922        1.7880        1.8406     -999.2500     -999.2500       24.8272     -999.2500    12688.4561
      1272.4388       12.2500     -999.2500   -999.250000       81.5380      167.3938       27.7912        2.0230        2.0881        2.1101        2.1311        2.1988     -999.2500     -999.2500       24.6889     -999.2500    12264.2197
