~Version Information Block
VERS .                 2.00:  CWLS LOG ASCII STANDARD - VERSION 2.00
WRAP .                   NO:  One line per depth step
~Well Information Block
#MNEM.UNIT        Data Type   Information
#---------- ----------------  -----------
STRT .M                 200:  START DEPTH
STOP .M           1985.0612:  STOP DEPTH
STEP .M                   0:  STEP
NULL .              -999.25:  NULL VALUE
COMP .                     :  COMPANY
WELL .          AUDACIOUS-5:  WELL
FLD  .                     :  FIELD
LOC  .     X = 730542.3900 Y = 8704837.7300:  LOCATION
PROV .                     :  PROVINCE
UWI  .                     :  UNIQUE WELL ID
SRVC .                     :  SERVICE COMPANY
DATE .                     :  LOG DATE
~Curve Information Block
#MNEM.UNIT         API CODE   Curve Description
#---------- ----------------  -----------------
DEPTH.M                    :  
BS   .IN                   :  
CAL  .IN                   :  
DRHO .G/C3                 :  
DTCO .US/F                 :  
DTSM .US/F                 :  
GR   .GAPI                 :  
P16H .OHMM                 :  
P22H .OHMM                 :  
P28H .OHMM                 :  
P34H .OHMM                 :  
P40H .OHMM                 :  
PEF  .B/E                  :  
RHOB .G/C3                 :  
ROP  .M/HR                 :  
TNPH .V/V                  :  
VEL  .F/S                  :  
~Parameter Information Block
#MNEM.UNIT            Value   Description
#---------- ----------------  -----------
SET  .                 WIRE:  
DIRECTIONAL_SET.                  DEV:  Preferred directional survey set
DRIL .M                1985:  
ELEV .M                24.7:  KELLY BUSHING ELEVATION
EPD  .M                   0:  PERMANENT DATUM ELEVATION
LATI .         11 42 29.883:  
LONG .         125 6 54.411:  
MEAS .                   RT:  
SURF .M                   0:  GROUND LEVEL ELEVATION
WELL_NAME.          AUDACIOUS-5:  WELL NAME
XOFFSET_BOTTOM.M     -19.32275334907:  
X_LO .M          730542.387:  
YOFFSET_BOTTOM.M     -6.744868576516:  
Y_LO .M         8704837.734:  
~Other Information Block
~A        DEPTH             BS            CAL           DRHO           DTCO           DTSM             GR           P16H           P22H           P28H           P34H           P40H            PEF           RHOB            ROP           TNPH            VEL 
# ...
      1386.5864       12.2500     -999.2500   -999.250000       99.4136      209.2413       58.8609        2.0670        2.0583        2.0629        2.0680        2.0603     -999.2500     -999.2500       38.7449     -999.2500    10058.9863
      1386.7388       12.2500     -999.2500   -999.250000       96.0795      206.8559       59.0513        1.9546        1.9376        1.9435        1.9494        1.9325     -999.2500     -999.2500       37.2642     -999.2500    10408.0479
      1386.8912       12.2500     -999.2500   -999.250000       93.9430      208.5660       62.7287        1.8271        1.8184        1.8230        1.8234        1.8062     -999.2500     -999.2500       35.2423     -999.2500    10644.7529
      1387.0436       12.2500     -999.2500   -999.250000       93.7524      203.6427       64.8117        1.7587        1.7683        1.7723        1.7648        1.7516     -999.2500     -999.2500       32.2288     -999.2500    10666.3936
      1387.1960       12.2500     -999.2500   -999.250000       94.6126      206.0736       64.3232        1.7726        1.7978        1.8007        1.7901        1.7883     -999.2500     -999.2500       30.8443     -999.2500    10569.4170
      1387.3484       12.2500     -999.2500   -999.250000       97.0836      210.6012       61.4433        1.8582        1.8989        1.8994        1.8903        1.9119     -999.2500     -999.2500       29.2722     -999.2500    10300.4004
      1387.5008       12.2500     -999.2500   -999.250000       97.6588      204.4328       57.1471        2.0068        2.0532        2.0564        2.0565        2.0970     -999.2500     -999.2500       28.4857     -999.2500    10239.7324
      1387.6532       12.2500     -999.2500   -999.250000       98.5946      206.4616       53.8854        2.2178        2.2480        2.2511        2.2580        2.2966     -999.2500     -999.2500       27.8570     -999.2500    10142.5439
      1387.8056       12.2500     -999.2500   -999.250000      101.9812      209.1865       52.3992        2.2985        2.2903        2.2904        2.2994        2.3095     -999.2500     -999.2500       27.1162     -999.2500     9805.7285
      1387.9580       12.2500     -999.2500   -999.250000       98.2778      214.1450       54.8960        2.1837        2.1486        2.1486        2.1561        2.1371     -999.2500     -999.2500       27.4610     -999.2500    10175.2373
      1388.1104       12.2500     -999.2500   -999.250000       94.9888      204.2367       58.5633        2.0183        1.9893        1.9847        1.9809        1.9544     -999.2500     -999.2500       28.4385     -999.2500    10527.5566
      1388.2628       12.2500     -999.2500   -999.250000       94.2972      211.0091       60.9950        1.8746        1.8667        1.8579        1.8390        1.8117     -999.2500     -999.2500       29.4452     -999.2500    10604.7686
      1388.4152       12.2500     -999.2500   -999.250000       97.4102      218.3260       61.9276        1.7883        1.8029        1.7970        1.7785        1.7676     -999.2500     -999.2500       31.1767     -999.2500    10265.8652
      1388.5676       12.2500     -999.2500   -999.250000       99.6832      210.7145       60.9828        1.7963        1.8368        1.8425        1.8331        1.8437     -999.2500     -999.2500       30.4825     -999.2500    10031.7812
      1388.7200       12.2500     -999.2500   -999.250000       99.3623      205.9203       59.3164        1.9524        2.0043        2.0215        2.0307        2.0680     -999.2500     -999.2500       29.0067     -999.2500    10064.1797
      1388.8724       12.2500     -999.2500   -999.250000       97.5385      202.2921       58.9093        2.1269        2.1494        2.1619        2.1799        2.2143     -999.2500     -999.2500       28.9635     -999.2500    10252.3623
      1389.0248       12.2500     -999.2500   -999.250000       97.6045      202.6787       60.2366        2.1296        2.1147        2.1069        2.1109        2.1205     -999.2500     -999.2500       29.0325     -999.2500    10245.4297
      1389.1772       12.2500     -999.2500   -999.250000      101.2884      206.8869       60.5860        2.0073        1.9781        1.9551        1.9422        1.9342     -999.2500     -999.2500       28.6708     -999.2500     9872.7988
      1389.3296       12.2500     -999.2500   -999.250000      103.9193      207.8066       59.8151        1.9182        1.9147        1.8998        1.8835        1.8772     -999.2500     -999.2500       27.6586     -999.2500     9622.8516
      1389.4820       12.2500     -999.2500   -999.250000      107.6730      208.7955       58.0307        1.9463        1.9755        1.9736        1.9590        1.9623     -999.2500     -999.2500       25.5783     -999.2500     9287.3799
      1389.6344       12.2500     -999.2500   -999.250000      109.8877      204.6145       59.3910        2.0413        2.0798        2.0871        2.0763        2.0790     -999.2500     -999.2500       24.7565     -999.2500     9100.1992
      1389.7868       12.2500     -999.2500   -999.250000      107.8031      202.5337       60.8605        2.0366        2.0529        2.0617        2.0628        2.0638     -999.2500     -999.2500       24.1998     -999.2500     9276.1709
      1389.9392       12.2500     -999.2500   -999.250000      100.7210      206.5944       63.9753        1.9080        1.8950        1.8957        1.9030        1.9033     -999.2500     -999.2500       24.2998     -999.2500     9928.4160
      1390.0916       12.2500     -999.2500   -999.250000       94.6407      213.3674       66.6868        1.7797        1.7641        1.7639        1.7718        1.7728     -999.2500     -999.2500       24.6552     -999.2500    10566.2783
      1390.2440       12.2500     -999.2500   -999.250000       92.2450      221.3823       68.6913        1.7109        1.7097        1.7118        1.7109        1.7039     -999.2500     -999.2500       25.3821     -999.2500    10840.6953
      1390.3964       12.2500     -999.2500   -999.250000       94.5823      214.9207       68.7673        1.6871        1.6976        1.6987        1.6920        1.6869     -999.2500     -999.2500       26.2751     -999.2500    10572.8027
      1390.5488       12.2500     -999.2500   -999.250000       96.5494      210.5627       66.8210        1.6940        1.7170        1.7145        1.7030        1.7081     -999.2500     -999.2500       27.2292     -999.2500    10357.3926
      1390.7012       12.2500     -999.2500   -999.250000      100.5325      204.3886       63.8800        1.7803        1.8160        1.8171        1.8118        1.8349     -999.2500     -999.2500       27.8029     -999.2500     9947.0322
      1390.8536       12.2500     -999.2500   -999.250000      103.9887      197.5300       61.6000        1.9558        1.9904        1.9949        1.9989        2.0331     -999.2500     -999.2500       29.9851     -999.2500     9616.4297
      1391.0060       12.2500     -999.2500   -999.250000      104.3220      197.1801       59.6602        2.1011        2.1147        2.1208        2.1321        2.1565     -999.2500     -999.2500       31.7886     -999.2500     9585.7061
      1391.1584       12.2500     -999.2500   -999.250000      101.9332      196.7189       59.6612        2.1136        2.0950        2.0932        2.1014        2.1034     -999.2500     -999.2500       32.2345     -999.2500     9810.3467
      1391.3108       12.2500     -999.2500   -999.250000       99.8639      196.4543       58.9477        2.0052        1.9756        1.9673        1.9665        1.9525     -999.2500     -999.2500       32.0886     -999.2500    10013.6289
      1391.4632       12.2500     -999.2500   -999.250000       99.0835      198.4371       60.7911        1.8801        1.8699        1.8643        1.8537        1.8339     -999.2500     -999.2500       31.4281     -999.2500    10092.4971
      1391.6156       12.2500     -999.2500   -999.250000      101.1094      200.5395       61.8967        1.8047        1.8216        1.8215        1.8063        1.7930     -999.2500     -999.2500       30.5815     -999.2500     9890.2773
