~Version Information Block
VERS .                 2.00:  CWLS LOG ASCII STANDARD - VERSION 2.00
WRAP .                   NO:  One line per depth step
~Well Information Block
#MNEM.UNIT        Data Type   Information
#---------- ----------------  -----------
STRT .M                 200:  START DEPTH
STOP .M           1985.0612:  STOP DEPTH
STEP .M                   0:  STEP
NULL .              -999.25:  NULL VALUE
COMP .                     :  COMPANY
WELL .          AUDACIOUS-5:  WELL
FLD  .                     :  FIELD
LOC  .     X = 730542.3900 Y = 8704837.7300:  LOCATION
PROV .                     :  PROVINCE
UWI  .                     :  UNIQUE WELL ID
SRVC .                     :  SERVICE COMPANY
DATE .                     :  LOG DATE
~Curve Information Block
#MNEM.UNIT         API CODE   Curve Description
#---------- ----------------  -----------------
DEPTH.M                    :  
BS   .IN                   :  
CAL  .IN                   :  
DRHO .G/C3                 :  
DTCO .US/F                 :  
DTSM .US/F                 :  
GR   .GAPI                 :  
P16H .OHMM                 :  
P22H .OHMM                 :  
P28H .OHMM                 :  
P34H .OHMM                 :  
P40H .OHMM                 :  
PEF  .B/E                  :  
RHOB .G/C3                 :  
ROP  .M/HR                 :  
TNPH .V/V                  :  
VEL  .F/S                  :  
~Parameter Information Block
#MNEM.UNIT            Value   Description
#---------- ----------------  -----------
SET  .                 WIRE:  
DIRECTIONAL_SET.                  DEV:  Preferred directional survey set
DRIL .M                1985:  
ELEV .M                24.7:  KELLY BUSHING ELEVATION
EPD  .M                   0:  PERMANENT DATUM ELEVATION
LATI .         11 42 29.883:  
LONG .         125 6 54.411:  
MEAS .                   RT:  
SURF .M                   0:  GROUND LEVEL ELEVATION
WELL_NAME.          AUDACIOUS-5:  WELL NAME
XOFFSET_BOTTOM.M     -19.32275334907:  
X_LO .M          730542.387:  
YOFFSET_BOTTOM.M     -6.744868576516:  
Y_LO .M         8704837.734:  
~Other Information Block
~A        DEPTH             BS            CAL           DRHO           DTCO           DTSM             GR           P16H           P22H           P28H           P34H           P40H            PEF           RHOB            ROP           TNPH            VEL 
# ...
      1982.4704        8.5000        8.4756      0.060100     -999.2500     -999.2500       16.3881        1.7793        1.8385        1.8568        1.8397        1.8297        1.9407        2.3881       22.8480        0.2129     -999.2500
      1982.6228        8.5000        8.4756      0.060100     -999.2500     -999.2500       16.3881        1.7793        1.8385        1.8568        1.8397        1.8297        1.9407        2.3881       23.7879        0.2129     -999.2500
      1982.7752        8.5000        8.4756      0.060100     -999.2500     -999.2500       16.3881        1.7793        1.8385        1.8568        1.8397        1.8297        1.9407        2.3881       24.7273        0.2129     -999.2500
      1982.9276        8.5000        8.4756      0.060100     -999.2500     -999.2500       16.3881        1.7793        1.8385        1.8568        1.8397        1.8297        1.9407        2.3881       26.4381        0.2129     -999.2500
      1983.0800        8.5000        8.4756      0.060100     -999.2500     -999.2500       16.3881        1.7793        1.8385        1.8568        1.8397        1.8297        1.9407        2.3881       28.8294        0.2129     -999.2500
      1983.2324        8.5000        8.4756      0.060100     -999.2500     -999.2500       16.3881        1.7793        1.8385        1.8568        1.8397        1.8297        1.9407        2.3881       30.1208        0.2129     -999.2500
      1983.3848        8.5000        8.4756      0.060100     -999.2500     -999.2500       16.3881        1.7793        1.8385        1.8568        1.8397        1.8297        1.9407        2.3881       28.1789        0.2129     -999.2500
      1983.5372        8.5000        8.4756      0.060100     -999.2500     -999.2500       16.3881        1.7793        1.8385        1.8568        1.8397        1.8297        1.9407        2.3881       26.9638        0.2129     -999.2500
      1983.6896        8.5000        8.4756      0.060100     -999.2500     -999.2500       16.3881        1.7793        1.8385        1.8568        1.8397        1.8297        1.9407        2.3881       27.2926        0.2129     -999.2500
      1983.8420        8.5000        8.4756      0.060100     -999.2500     -999.2500       16.3881        1.7793        1.8385        1.8568        1.8397        1.8297        1.9407        2.3881       27.3394        0.2129     -999.2500
      1983.9944        8.5000        8.4756      0.060100     -999.2500     -999.2500       16.3881        1.7793        1.8385        1.8568        1.8397        1.8297        1.9407        2.3881       27.5251        0.2129     -999.2500
      1984.1468        8.5000        8.4756      0.060100     -999.2500     -999.2500       16.3881        1.7793        1.8385        1.8568        1.8397        1.8297        1.9407        2.3881       27.5554        0.2129     -999.2500
      1984.2992        8.5000        8.4756      0.060100     -999.2500     -999.2500       16.3881        1.7793        1.8385        1.8568        1.8397        1.8297        1.9407        2.3881       27.0823        0.2129     -999.2500
      1984.4516        8.5000        8.4756      0.060100     -999.2500     -999.2500       16.3881        1.7793        1.8385        1.8568        1.8397        1.8297        1.9407        2.3881       26.8421        0.2129     -999.2500
      1984.6040        8.5000        8.4756      0.060100     -999.2500     -999.2500       16.3881        1.7793        1.8385        1.8568        1.8397        1.8297        1.9407        2.3881       26.9595        0.2129     -999.2500
      1984.7564        8.5000        8.4756      0.060100     -999.2500     -999.2500       16.3881        1.7793        1.8385        1.8568        1.8397        1.8297        1.9407        2.3881       26.8948        0.2129     -999.2500
      1984.9088        8.5000        8.4756      0.060100     -999.2500     -999.2500       16.3881        1.7793        1.8385        1.8568        1.8397        1.8297        1.9407        2.3881       28.2440        0.2129     -999.2500
      1985.0612        8.5000        8.4756      0.060100     -999.2500     -999.2500       16.3881        1.7793        1.8385        1.8568        1.8397        1.8297        1.9407        2.3881       30.6496        0.2129     -999.2500
