~Version Information Block
VERS .                 2.00:  CWLS LOG ASCII STANDARD - VERSION 2.00
WRAP .                   NO:  One line per depth step
~Well Information Block
#MNEM.UNIT        Data Type   Information
#---------- ----------------  -----------
STRT .M                 200:  START DEPTH
STOP .M           1985.0612:  STOP DEPTH
STEP .M                   0:  STEP
NULL .              -999.25:  NULL VALUE
COMP .                     :  COMPANY
WELL .          AUDACIOUS-5:  WELL
FLD  .                     :  FIELD
LOC  .     X = 730542.3900 Y = 8704837.7300:  LOCATION
PROV .                     :  PROVINCE
UWI  .                     :  UNIQUE WELL ID
SRVC .                     :  SERVICE COMPANY
DATE .                     :  LOG DATE
~Curve Information Block
#MNEM.UNIT         API CODE   Curve Description
#---------- ----------------  -----------------
DEPTH.M                    :  
BS   .IN                   :  
CAL  .IN                   :  
DRHO .G/C3                 :  
DTCO .US/F                 :  
DTSM .US/F                 :  
GR   .GAPI                 :  
P16H .OHMM                 :  
P22H .OHMM                 :  
P28H .OHMM                 :  
P34H .OHMM                 :  
P40H .OHMM                 :  
PEF  .B/E                  :  
RHOB .G/C3                 :  
ROP  .M/HR                 :  
TNPH .V/V                  :  
VEL  .F/S                  :  
~Parameter Information Block
#MNEM.UNIT            Value   Description
#---------- ----------------  -----------
SET  .                 WIRE:  
DIRECTIONAL_SET.                  DEV:  Preferred directional survey set
DRIL .M                1985:  
ELEV .M                24.7:  KELLY BUSHING ELEVATION
EPD  .M                   0:  PERMANENT DATUM ELEVATION
LATI .         11 42 29.883:  
LONG .         125 6 54.411:  
MEAS .                   RT:  
SURF .M                   0:  GROUND LEVEL ELEVATION
WELL_NAME.          AUDACIOUS-5:  WELL NAME
XOFFSET_BOTTOM.M     -19.32275334907:  
X_LO .M          730542.387:  
YOFFSET_BOTTOM.M     -6.744868576516:  
Y_LO .M         8704837.734:  
~Other Information Block
~A        DEPTH             BS            CAL           DRHO           DTCO           DTSM             GR           P16H           P22H           P28H           P34H           P40H            PEF           RHOB            ROP           TNPH            VEL 
# ...
       438.3536       12.2500     -999.2500   -999.250000       93.0604     -999.2500       25.8956        1.3301        1.3484        1.3635        1.3682        1.3657     -999.2500     -999.2500       36.6860     -999.2500    10745.7090
       438.5060       12.2500     -999.2500   -999.250000       91.6486     -999.2500       29.5828        1.2909        1.3136        1.3281        1.3299        1.3275     -999.2500     -999.2500       37.9925     -999.2500    10911.2412
       438.6584       12.2500     -999.2500   -999.250000       91.3260     -999.2500       33.7085        1.2577        1.2747        1.2832        1.2849        1.2885     -999.2500     -999.2500       37.7940     -999.2500    10949.7852
       438.8108       12.2500     -999.2500   -999.250000       92.1441     -999.2500       36.9961        1.2462        1.2712        1.2828        1.2860        1.2948     -999.2500     -999.2500       39.7204     -999.2500    10852.5674
       438.9632       12.2500     -999.2500   -999.250000       93.5859     -999.2500       37.9800        1.2574        1.2874        1.3006        1.3009        1.3060     -999.2500     -999.2500       48.3022     -999.2500    10685.3701
       439.1156       12.2500     -999.2500   -999.250000       94.2286     -999.2500       37.5764        1.2780        1.3112        1.3306        1.3378        1.3474     -999.2500     -999.2500       61.7336     -999.2500    10612.4893
       439.2680       12.2500     -999.2500   -999.250000       93.7419     -999.2500       37.3134        1.3229        1.3503        1.3701        1.3817        1.3931     -999.2500     -999.2500       69.6481     -999.2500    10667.5889
       439.4204       12.2500     -999.2500   -999.250000       92.8605     -999.2500       37.2983        1.3500        1.3758        1.3975        1.4104        1.4190     -999.2500     -999.2500       70.3386     -999.2500    10768.8418
       439.5728       12.2500     -999.2500   -999.250000       93.5078     -999.2500       35.7039        1.3546        1.3781        1.3909        1.3930        1.3951     -999.2500     -999.2500       71.7224     -999.2500    10694.2949
       439.7252       12.2500     -999.2500   -999.250000       94.8490     -999.2500       32.6904        1.3429        1.3651        1.3719        1.3660        1.3634     -999.2500     -999.2500       75.0433     -999.2500    10543.0742
       439.8776       12.2500     -999.2500   -999.250000       95.7618     -999.2500       29.5495        1.3859        1.4167        1.4287        1.4275        1.4324     -999.2500     -999.2500       76.5178     -999.2500    10442.5771
       440.0300       12.2500     -999.2500   -999.250000       96.7782     -999.2500       27.5835        1.4792        1.5292        1.5541        1.5617        1.5783     -999.2500     -999.2500       77.6693     -999.2500    10332.9053
       440.1824       12.2500     -999.2500   -999.250000       93.7663     -999.2500       26.6317        1.5411        1.5874        1.6130        1.6232        1.6405     -999.2500     -999.2500       78.5479     -999.2500    10664.8125
       440.3348       12.2500     -999.2500   -999.250000       94.8852     -999.2500       26.4363        1.5960        1.6354        1.6598        1.6686        1.6775     -999.2500     -999.2500       77.9163     -999.2500    10539.0518
       440.4872       12.2500     -999.2500   -999.250000       94.1980     -999.2500       26.4712        1.6121        1.6426        1.6671        1.6806        1.6897     -999.2500     -999.2500       77.2742     -999.2500    10615.9365
       440.6396       12.2500     -999.2500   -999.250000       94.0179     -999.2500       27.2386        1.6142        1.6471        1.6727        1.6895        1.7051     -999.2500     -999.2500       76.9695     -999.2500    10636.2725
       440.7920       12.2500     -999.2500   -999.250000       97.8955     -999.2500       27.9525        1.6606        1.7059        1.7353        1.7533        1.7774     -999.2500     -999.2500       76.4943     -999.2500    10214.9736
       440.9444       12.2500     -999.2500   -999.250000       94.3209     -999.2500       28.5314        1.6656        1.7183        1.7615        1.7848        1.7986     -999.2500     -999.2500       76.8029     -999.2500    10602.1045
       441.0968       12.2500     -999.2500   -999.250000       89.0780     -999.2500       28.9529        1.5397        1.5824        1.6249        1.6483        1.6530     -999.2500     -999.2500       76.6773     -999.2500    11226.1162
       441.2492       12.2500     -999.2500   -999.250000       88.6802     -999.2500       29.6457        1.3823        1.4228        1.4542        1.4577        1.4437     -999.2500     -999.2500       75.8517     -999.2500    11276.4746
       441.4016       12.2500     -999.2500   -999.250000       91.4975     -999.2500       29.9707        1.2509        1.3235        1.3729        1.3849        1.3876     -999.2500     -999.2500       74.2828     -999.2500    10929.2607
       441.5540       12.2500     -999.2500   -999.250000       93.0703     -999.2500       30.2323        1.2730        1.3599        1.4224        1.4441        1.4556     -999.2500     -999.2500       72.1172     -999.2500    10744.5664
       441.7064       12.2500     -999.2500   -999.250000       93.6361     -999.2500       30.2974        1.2777        1.3520        1.4083        1.4311        1.4426     -999.2500     -999.2500       69.8764     -999.2500    10679.6416
       441.8588       12.2500     -999.2500   -999.250000       94.9747     -999.2500       30.9131        1.2361        1.2999        1.3512        1.3764        1.3913     -999.2500     -999.2500       65.4143     -999.2500    10529.1201
       442.0112       12.2500     -999.2500   -999.250000       96.1018     -999.2500       31.0790        1.2109        1.2775        1.3268        1.3493        1.3664     -999.2500     -999.2500       58.4396     -999.2500    10405.6328
       442.1636       12.2500     -999.2500   -999.250000       97.2145     -999.2500       31.5190        1.2275        1.3154        1.3769        1.3981        1.4126     -999.2500     -999.2500       50.7315     -999.2500    10286.5312
       442.3160       12.2500     -999.2500   -999.250000       97.2627     -999.2500       31.9649        1.3018        1.3923        1.4540        1.4756        1.4927     -999.2500     -999.2500       48.3571     -999.2500    10281.4336
       442.4684       12.2500     -999.2500   -999.250000       95.3198     -999.2500       32.0800        1.3399        1.4193        1.4796        1.5132        1.5443     -999.2500     -999.2500       44.5633     -999.2500    10491.0000
       442.6208       12.2500     -999.2500   -999.250000       93.3902     -999.2500       31.2432        1.3864        1.4610        1.5149        1.5431        1.5696     -999.2500     -999.2500       39.9696     -999.2500    10707.7617
       442.7732       12.2500     -999.2500   -999.250000       92.1234     -999.2500       29.7279        1.4283        1.5114        1.5736        1.6038        1.6252     -999.2500     -999.2500       38.3580     -999.2500    10855.0059
       442.9256       12.2500     -999.2500   -999.250000       91.6643     -999.2500       27.5661        1.4307        1.5015        1.5484        1.5650        1.5778     -999.2500     -999.2500       38.0995     -999.2500    10909.3730
       443.0780       12.2500     -999.2500   -999.250000       91.4672     -999.2500       25.5536        1.3532        1.4193        1.4660        1.4861        1.5026     -999.2500     -999.2500       38.9039     -999.2500    10932.8809
       443.2304       12.2500     -999.2500   -999.250000       89.3653     -999.2500       24.5223        1.2591        1.3218        1.3701        1.3940        1.4111     -999.2500     -999.2500       46.6864     -999.2500    11190.0254
       443.3828       12.2500     -999.2500   -999.250000       86.7808     -999.2500       24.3782        1.1812        1.2441        1.2905        1.3098        1.3220     -999.2500     -999.2500       59.6118     -999.2500    11523.2861
