~Version Information Block
VERS .                 2.00:  CWLS LOG ASCII STANDARD - VERSION 2.00
WRAP .                   NO:  One line per depth step
~Well Information Block
#MNEM.UNIT        Data Type   Information
#---------- ----------------  -----------
STRT .M                 200:  START DEPTH
STOP .M           1985.0612:  STOP DEPTH
STEP .M                   0:  STEP
NULL .              -999.25:  NULL VALUE
COMP .                     :  COMPANY
WELL .          AUDACIOUS-5:  WELL
FLD  .                     :  FIELD
LOC  .     X = 730542.3900 Y = 8704837.7300:  LOCATION
PROV .                     :  PROVINCE
UWI  .                     :  UNIQUE WELL ID
SRVC .                     :  SERVICE COMPANY
DATE .                     :  LOG DATE
~Curve Information Block
#MNEM.UNIT         API CODE   Curve Description
#---------- ----------------  -----------------
DEPTH.M                    :  
BS   .IN                   :  
CAL  .IN                   :  
DRHO .G/C3                 :  
DTCO .US/F                 :  
DTSM .US/F                 :  
GR   .GAPI                 :  
P16H .OHMM                 :  
P22H .OHMM                 :  
P28H .OHMM                 :  
P34H .OHMM                 :  
P40H .OHMM                 :  
PEF  .B/E                  :  
RHOB .G/C3                 :  
ROP  .M/HR                 :  
TNPH .V/V                  :  
VEL  .F/S                  :  
~Parameter Information Block
#MNEM.UNIT            Value   Description
#---------- ----------------  -----------
SET  .                 WIRE:  
DIRECTIONAL_SET.                  DEV:  Preferred directional survey set
DRIL .M                1985:  
ELEV .M                24.7:  KELLY BUSHING ELEVATION
EPD  .M                   0:  PERMANENT DATUM ELEVATION
LATI .         11 42 29.883:  
LONG .         125 6 54.411:  
MEAS .                   RT:  
SURF .M                   0:  GROUND LEVEL ELEVATION
WELL_NAME.          AUDACIOUS-5:  WELL NAME
XOFFSET_BOTTOM.M     -19.32275334907:  
X_LO .M          730542.387:  
YOFFSET_BOTTOM.M     -6.744868576516:  
Y_LO .M         8704837.734:  
~Other Information Block
~A        DEPTH             BS            CAL           DRHO           DTCO           DTSM             GR           P16H           P22H           P28H           P34H           P40H            PEF           RHOB            ROP           TNPH            VEL 
       200.0000       12.2500     -999.2500   -999.250000     -999.2500     -999.2500        6.3279        0.2251        0.2258        0.2262        0.2261        0.2260     -999.2500     -999.2500      508.3843     -999.2500     -999.2500
       200.1542       12.2500     -999.2500   -999.250000     -999.2500     -999.2500        6.3205        0.2252        0.2262        0.2270        0.2263        0.2242     -999.2500     -999.2500      548.6743     -999.2500     -999.2500
       200.3048       12.2500     -999.2500   -999.250000     -999.2500     -999.2500        6.3205        0.2252        0.2262        0.2270        0.2263        0.2242     -999.2500     -999.2500      578.4809     -999.2500     -999.2500
       200.4572       12.2500     -999.2500   -999.250000     -999.2500     -999.2500        6.3205        0.2252        0.2262        0.2270        0.2263        0.2242     -999.2500     -999.2500      608.2875     -999.2500     -999.2500
       200.6096       12.2500     -999.2500   -999.250000     -999.2500     -999.2500        6.3205        0.2252        0.2262        0.2270        0.2263        0.2242     -999.2500     -999.2500      638.0941     -999.2500     -999.2500
       200.7620       12.2500     -999.2500   -999.250000     -999.2500     -999.2500        6.3205        0.2252        0.2262        0.2270        0.2263        0.2242     -999.2500     -999.2500      667.9007     -999.2500     -999.2500
       200.9144       12.2500     -999.2500   -999.250000     -999.2500     -999.2500        6.3205        0.2252        0.2262        0.2270        0.2263        0.2242     -999.2500     -999.2500      697.7073     -999.2500     -999.2500
       201.0668       12.2500     -999.2500   -999.250000     -999.2500     -999.2500        6.3205        0.2252        0.2262        0.2270        0.2263        0.2242     -999.2500     -999.2500      727.5140     -999.2500     -999.2500
       201.2192       12.2500     -999.2500   -999.250000     -999.2500     -999.2500        6.3205        0.2252        0.2262        0.2270        0.2263        0.2242     -999.2500     -999.2500      757.3206     -999.2500     -999.2500
       201.3716       12.2500     -999.2500   -999.250000     -999.2500     -999.2500        6.3205        0.2252        0.2262        0.2270        0.2263        0.2242     -999.2500     -999.2500      786.2310     -999.2500     -999.2500
       201.5240       12.2500     -999.2500   -999.250000     -999.2500     -999.2500        6.3959        0.2252        0.2262        0.2270        0.2263        0.2242     -999.2500     -999.2500      809.7848     -999.2500     -999.2500
       201.6764       12.2500     -999.2500   -999.250000     -999.2500     -999.2500        6.6207        0.2252        0.2262        0.2270        0.2263        0.2242     -999.2500     -999.2500      826.2523     -999.2500     -999.2500
       201.8288       12.2500     -999.2500   -999.250000     -999.2500     -999.2500        6.8454        0.2257        0.2262        0.2268        0.2251        0.2210     -999.2500     -999.2500      842.7199     -999.2500     -999.2500
       201.9812       12.2500     -999.2500   -999.250000     -999.2500     -999.2500        6.9946        0.2267        0.2263        0.2263        0.2226        0.2147     -999.2500     -999.2500      859.1874     -999.2500     -999.2500
       202.1336       12.2500     -999.2500   -999.250000     -999.2500     -999.2500        6.9946        0.2267        0.2263        0.2263        0.2226        0.2147     -999.2500     -999.2500      875.6549     -999.2500     -999.2500
       202.2860       12.2500     -999.2500   -999.250000     -999.2500     -999.2500        6.9946        0.2267        0.2263        0.2263        0.2226        0.2147     -999.2500     -999.2500      892.1224     -999.2500     -999.2500
       202.4384       12.2500     -999.2500   -999.250000     -999.2500     -999.2500        6.9946        0.2267        0.2263        0.2263        0.2226        0.2147     -999.2500     -999.2500      908.5900     -999.2500     -999.2500
       202.5908       12.2500     -999.2500   -999.250000     -999.2500     -999.2500        6.9946        0.2267        0.2263        0.2263        0.2226        0.2147     -999.2500     -999.2500      922.1763     -999.2500     -999.2500
       202.7432       12.2500     -999.2500   -999.250000     -999.2500     -999.2500        6.9946        0.2267        0.2263        0.2263        0.2226        0.2147     -999.2500     -999.2500      918.5421     -999.2500     -999.2500
       202.8956       12.2500     -999.2500   -999.250000     -999.2500     -999.2500        6.9946        0.2267        0.2263        0.2263        0.2226        0.2147     -999.2500     -999.2500      892.1259     -999.2500     -999.2500
       203.0480       12.2500     -999.2500   -999.250000     -999.2500     -999.2500        6.9946        0.2267        0.2263        0.2263        0.2226        0.2147     -999.2500     -999.2500      865.7098     -999.2500     -999.2500
       203.2004       12.2500     -999.2500   -999.250000     -999.2500     -999.2500        6.9946        0.2267        0.2263        0.2263        0.2226        0.2147     -999.2500     -999.2500      839.2937     -999.2500     -999.2500
       203.3528       12.2500     -999.2500   -999.250000     -999.2500     -999.2500        6.7531        0.2267        0.2263        0.2263        0.2226        0.2147     -999.2500     -999.2500      812.8776     -999.2500     -999.2500
       203.5052       12.2500     -999.2500   -999.250000     -999.2500     -999.2500        6.0339        0.2267        0.2263        0.2263        0.2226        0.2147     -999.2500     -999.2500      776.2828     -999.2500     -999.2500
       203.6576       12.2500     -999.2500   -999.250000     -999.2500     -999.2500        5.3148        0.2263        0.2263        0.2265        0.2239        0.2184     -999.2500     -999.2500      717.0226     -999.2500     -999.2500
       203.8100       12.2500     -999.2500   -999.250000     -999.2500     -999.2500        4.8373        0.2254        0.2262        0.2268        0.2266        0.2257     -999.2500     -999.2500      652.7321     -999.2500     -999.2500
       203.9624       12.2500     -999.2500   -999.250000     -999.2500     -999.2500        4.8373        0.2254        0.2262        0.2268        0.2266        0.2257     -999.2500     -999.2500      589.4103     -999.2500     -999.2500
       204.1148       12.2500     -999.2500   -999.250000     -999.2500     -999.2500        4.8373        0.2254        0.2262        0.2268        0.2266        0.2257     -999.2500     -999.2500      531.8785     -999.2500     -999.2500
       204.2672       12.2500     -999.2500   -999.250000     -999.2500     -999.2500        4.8373        0.2254        0.2262        0.2268        0.2266        0.2257     -999.2500     -999.2500      482.0065     -999.2500     -999.2500
       204.4196       12.2500     -999.2500   -999.250000     -999.2500     -999.2500        4.8373        0.2254        0.2262        0.2268        0.2266        0.2257     -999.2500     -999.2500      436.3211     -999.2500     -999.2500
       204.5720       12.2500     -999.2500   -999.250000     -999.2500     -999.2500        4.8373        0.2254        0.2262        0.2268        0.2266        0.2257     -999.2500     -999.2500      399.9577     -999.2500     -999.2500
       204.7244       12.2500     -999.2500   -999.250000     -999.2500     -999.2500        4.8373        0.2254        0.2262        0.2268        0.2266        0.2257     -999.2500     -999.2500      365.6633     -999.2500     -999.2500
       204.8768       12.2500     -999.2500   -999.250000     -999.2500     -999.2500        4.8373        0.2254        0.2262        0.2268        0.2266        0.2257     -999.2500     -999.2500      343.8508     -999.2500     -999.2500
       205.0292       12.2500     -999.2500   -999.250000     -999.2500     -999.2500        4.8373        0.2254        0.2262        0.2268        0.2266        0.2257     -999.2500     -999.2500      346.7124     -999.2500     -999.2500
