~Version Information Block
VERS .                 2.00:  CWLS LOG ASCII STANDARD - VERSION 2.00
WRAP .                   NO:  One line per depth step
~Well Information Block
#MNEM.UNIT        Data Type   Information
#---------- ----------------  -----------
STRT .M                 200:  START DEPTH
STOP .M           1985.0612:  STOP DEPTH
STEP .M                   0:  STEP
NULL .              -999.25:  NULL VALUE
COMP .                     :  COMPANY
WELL .          AUDACIOUS-5:  WELL
FLD  .                     :  FIELD
LOC  .     X = 730542.3900 Y = 8704837.7300:  LOCATION
PROV .                     :  PROVINCE
UWI  .                     :  UNIQUE WELL ID
SRVC .                     :  SERVICE COMPANY
DATE .                     :  LOG DATE
~Curve Information Block
#MNEM.UNIT         API CODE   Curve Description
#---------- ----------------  -----------------
DEPTH.M                    :  
BS   .IN                   :  
CAL  .IN                   :  
DRHO .G/C3                 :  
DTCO .US/F                 :  
DTSM .US/F                 :  
GR   .GAPI                 :  
P16H .OHMM                 :  
P22H .OHMM                 :  
P28H .OHMM                 :  
P34H .OHMM                 :  
P40H .OHMM                 :  
PEF  .B/E                  :  
RHOB .G/C3                 :  
ROP  .M/HR                 :  
TNPH .V/V                  :  
VEL  .F/S                  :  
~Parameter Information Block
#MNEM.UNIT            Value   Description
#---------- ----------------  -----------
SET  .                 WIRE:  
DIRECTIONAL_SET.                  DEV:  Preferred directional survey set
DRIL .M                1985:  
ELEV .M                24.7:  KELLY BUSHING ELEVATION
EPD  .M                   0:  PERMANENT DATUM ELEVATION
LATI .         11 42 29.883:  
LONG .         125 6 54.411:  
MEAS .                   RT:  
SURF .M                   0:  GROUND LEVEL ELEVATION
WELL_NAME.          AUDACIOUS-5:  WELL NAME
XOFFSET_BOTTOM.M     -19.32275334907:  
X_LO .M          730542.387:  
YOFFSET_BOTTOM.M     -6.744868576516:  
Y_LO .M         8704837.734:  
~Other Information Block
~A        DEPTH             BS            CAL           DRHO           DTCO           DTSM             GR           P16H           P22H           P28H           P34H           P40H            PEF           RHOB            ROP           TNPH            VEL 
# ...
       915.0608       12.2500     -999.2500   -999.250000       89.9419     -999.2500       71.3451        2.1778        2.1580        2.2053        2.2699        2.2810     -999.2500     -999.2500       24.0302     -999.2500    11118.2881
       915.2132       12.2500     -999.2500   -999.250000       87.2919     -999.2500       68.4748        2.0879        2.0240        2.0500        2.0960        2.0705     -999.2500     -999.2500       24.2496     -999.2500    11455.8164
       915.3656       12.2500     -999.2500   -999.250000       84.3349     -999.2500       63.9779        1.7474        1.6860        1.6776        1.6744        1.6268     -999.2500     -999.2500       24.3586     -999.2500    11857.4873
       915.5180       12.2500     -999.2500   -999.250000       76.4671     -999.2500       57.4388        1.5070        1.5093        1.4995        1.4783        1.4597     -999.2500     -999.2500       25.0227     -999.2500    13077.5195
       915.6704       12.2500     -999.2500   -999.250000       74.0265     -999.2500       48.1750        1.7430        1.8731        1.9016        1.8893        1.9500     -999.2500     -999.2500       25.0347     -999.2500    13508.6768
       915.8228       12.2500     -999.2500   -999.250000       75.3147     -999.2500       39.8663        2.6678        2.9283        3.0107        3.0271        3.1837     -999.2500     -999.2500       23.2318     -999.2500    13277.6211
       915.9752       12.2500     -999.2500   -999.250000       77.4878     -999.2500       35.0244        3.8148        3.9782        4.0268        4.0940        4.3140     -999.2500     -999.2500       21.1601     -999.2500    12905.2568
       916.1276       12.2500     -999.2500   -999.250000       79.2750     -999.2500       35.0521        4.5676        4.3567        4.2584        4.3393        4.5259     -999.2500     -999.2500       20.6285     -999.2500    12614.3174
       916.2800       12.2500     -999.2500   -999.250000       76.7760     -999.2500       36.2550        5.0823        4.5994        4.3873        4.3936        4.4249     -999.2500     -999.2500       19.8751     -999.2500    13024.9033
       916.4324       12.2500     -999.2500   -999.250000       73.0391     -999.2500       35.3311        5.0712        4.7474        4.5833        4.4917        4.3617     -999.2500     -999.2500       18.8687     -999.2500    13691.2969
       916.5848       12.2500     -999.2500   -999.250000       73.2081     -999.2500       34.3281        4.9815        4.8932        4.8130        4.6552        4.4330     -999.2500     -999.2500       18.1897     -999.2500    13659.6904
       916.7372       12.2500     -999.2500   -999.250000       73.8654     -999.2500       33.6944        4.9334        4.9471        4.9106        4.7803        4.6129     -999.2500     -999.2500       17.2230     -999.2500    13538.1377
       916.8896       12.2500     -999.2500   -999.250000       74.8788     -999.2500       34.9537        4.8324        4.8484        4.8302        4.7733        4.7116     -999.2500     -999.2500       16.4060     -999.2500    13354.9150
       917.0420       12.2500     -999.2500   -999.250000       75.9570     -999.2500       35.1556        4.6756        4.6837        4.6868        4.6883        4.6922     -999.2500     -999.2500       15.2956     -999.2500    13165.3438
       917.1944       12.2500     -999.2500   -999.250000       78.1563     -999.2500       34.7717        4.5537        4.5489        4.5601        4.5777        4.5863     -999.2500     -999.2500       15.2263     -999.2500    12794.8730
       917.3468       12.2500     -999.2500   -999.250000       78.6484     -999.2500       33.8840        4.3191        4.2989        4.2986        4.2961        4.2729     -999.2500     -999.2500       15.6394     -999.2500    12714.8174
       917.4992       12.2500     -999.2500   -999.250000       77.4991     -999.2500       33.0698        3.8950        3.8922        3.8909        3.8774        3.8507     -999.2500     -999.2500       15.9086     -999.2500    12903.3760
       917.6516       12.2500     -999.2500   -999.250000       77.3494     -999.2500       33.3755        3.5929        3.6244        3.6250        3.6131        3.6181     -999.2500     -999.2500       16.2102     -999.2500    12928.3477
       917.8040       12.2500     -999.2500   -999.250000       77.3118     -999.2500       32.2173        3.5111        3.5481        3.5364        3.5240        3.5576     -999.2500     -999.2500       16.5539     -999.2500    12934.6367
       917.9564       12.2500     -999.2500   -999.250000       78.3191     -999.2500       31.4730        3.4840        3.5354        3.5264        3.5134        3.5543     -999.2500     -999.2500       16.9395     -999.2500    12768.2773
       918.1088       12.2500     -999.2500   -999.250000       80.6538     -999.2500       30.0178        3.5008        3.5409        3.5311        3.5243        3.5688     -999.2500     -999.2500       17.5941     -999.2500    12398.6719
       918.2612       12.2500     -999.2500   -999.250000       81.7089     -999.2500       29.3498        3.5318        3.5196        3.4901        3.4831        3.5158     -999.2500     -999.2500       18.1125     -999.2500    12238.5684
       918.4136       12.2500     -999.2500   -999.250000       80.8073     -999.2500       29.5426        3.4975        3.4498        3.4104        3.3994        3.4102     -999.2500     -999.2500       19.2281     -999.2500    12375.1201
       918.5660       12.2500     -999.2500   -999.250000       80.8209     -999.2500       29.8923        3.4763        3.4295        3.3934        3.3765        3.3701     -999.2500     -999.2500       20.0281     -999.2500    12373.0371
       918.7184       12.2500     -999.2500   -999.250000       80.2661     -999.2500       32.8460        3.5092        3.4620        3.4146        3.3825        3.3674     -999.2500     -999.2500       20.0177     -999.2500    12458.5596
       918.8708       12.2500     -999.2500   -999.250000       80.2484     -999.2500       35.3284        3.5545        3.5128        3.4594        3.4210        3.4097     -999.2500     -999.2500       19.9161     -999.2500    12461.3076
       919.0232       12.2500     -999.2500   -999.250000       80.4841     -999.2500       38.4342        3.6389        3.5985        3.5415        3.5013        3.4944     -999.2500     -999.2500       19.3866     -999.2500    12424.8145
       919.1756       12.2500     -999.2500   -999.250000       79.2788     -999.2500       38.8389        3.6718        3.6364        3.5867        3.5550        3.5559     -999.2500     -999.2500       18.6035     -999.2500    12613.7129
       919.3280       12.2500     -999.2500   -999.250000       78.7321     -999.2500       37.7975        3.6919        3.6457        3.5983        3.5724        3.5705     -999.2500     -999.2500       18.0051     -999.2500    12701.2998
       919.4804       12.2500     -999.2500   -999.250000       79.0703     -999.2500       36.0678        3.7073        3.6464        3.5961        3.5670        3.5511     -999.2500     -999.2500       17.5526     -999.2500    12646.9736
       919.6328       12.2500     -999.2500   -999.250000       78.6332     -999.2500       34.6756        3.6066        3.5401        3.4976        3.4689        3.4340     -999.2500     -999.2500       17.3305     -999.2500    12717.2744
       919.7852       12.2500     -999.2500   -999.250000       78.3264     -999.2500       33.0555        3.4794        3.4363        3.4051        3.3791        3.3484     -999.2500     -999.2500       17.2804     -999.2500    12767.0869
       919.9376       12.2500     -999.2500   -999.250000       78.2616     -999.2500       32.1154        3.4092        3.3760        3.3434        3.3195        3.3046     -999.2500     -999.2500       17.3027     -999.2500    12777.6592
       920.0900       12.2500     -999.2500   -999.250000       78.3709     -999.2500       31.7018        3.3429        3.3214        3.2899        3.2691        3.2691     -999.2500     -999.2500       17.4161     -999.2500    12759.8379
