~Version Information Block
VERS .                 2.00:  CWLS LOG ASCII STANDARD - VERSION 2.00
WRAP .                   NO:  One line per depth step
~Well Information Block
#MNEM.UNIT        Data Type   Information
#---------- ----------------  -----------
STRT .M                 200:  START DEPTH
STOP .M           1985.0612:  STOP DEPTH
STEP .M                   0:  STEP
NULL .              -999.25:  NULL VALUE
COMP .                     :  COMPANY
WELL .          AUDACIOUS-5:  WELL
FLD  .                     :  FIELD
LOC  .     X = 730542.3900 Y = 8704837.7300:  LOCATION
PROV .                     :  PROVINCE
UWI  .                     :  UNIQUE WELL ID
SRVC .                     :  SERVICE COMPANY
DATE .                     :  LOG DATE
~Curve Information Block
#MNEM.UNIT         API CODE   Curve Description
#---------- ----------------  -----------------
DEPTH.M                    :  
BS   .IN                   :  
CAL  .IN                   :  
DRHO .G/C3                 :  
DTCO .US/F                 :  
DTSM .US/F                 :  
GR   .GAPI                 :  
P16H .OHMM                 :  
P22H .OHMM                 :  
P28H .OHMM                 :  
P34H .OHMM                 :  
P40H .OHMM                 :  
PEF  .B/E                  :  
RHOB .G/C3                 :  
ROP  .M/HR                 :  
TNPH .V/V                  :  
VEL  .F/S                  :  
~Parameter Information Block
#MNEM.UNIT            Value   Description
#---------- ----------------  -----------
SET  .                 WIRE:  
DIRECTIONAL_SET.                  DEV:  Preferred directional survey set
DRIL .M                1985:  
ELEV .M                24.7:  KELLY BUSHING ELEVATION
EPD  .M                   0:  PERMANENT DATUM ELEVATION
LATI .         11 42 29.883:  
LONG .         125 6 54.411:  
MEAS .                   RT:  
SURF .M                   0:  GROUND LEVEL ELEVATION
WELL_NAME.          AUDACIOUS-5:  WELL NAME
XOFFSET_BOTTOM.M     -19.32275334907:  
X_LO .M          730542.387:  
YOFFSET_BOTTOM.M     -6.744868576516:  
Y_LO .M         8704837.734:  
~Other Information Block
~A        DEPTH             BS            CAL           DRHO           DTCO           DTSM             GR           P16H           P22H           P28H           P34H           P40H            PEF           RHOB            ROP           TNPH            VEL 
# ...
      1148.2328       12.2500     -999.2500   -999.250000       87.9408      178.9513       27.4976        2.1917        2.1978        2.2096        2.2166        2.2128     -999.2500     -999.2500        2.9379     -999.2500    11371.2861
      1148.3852       12.2500     -999.2500   -999.250000       88.2545      179.3154       27.0867        2.1505        2.1630        2.1739        2.1780        2.1769     -999.2500     -999.2500        3.2707     -999.2500    11330.8672
      1148.5376       12.2500     -999.2500   -999.250000       88.9824      180.3640       27.2612        2.1494        2.1747        2.1844        2.1826        2.1847     -999.2500     -999.2500        3.4798     -999.2500    11238.1777
      1148.6900       12.2500     -999.2500   -999.250000       89.9495      181.0923       28.2632        2.1939        2.2332        2.2442        2.2421        2.2554     -999.2500     -999.2500        3.6798     -999.2500    11117.3486
      1148.8424       12.2500     -999.2500   -999.250000       90.5856      181.7278       30.0914        2.3558        2.4042        2.4097        2.4085        2.4434     -999.2500     -999.2500        3.8452     -999.2500    11039.2822
      1148.9948       12.2500     -999.2500   -999.250000       90.3390      182.0429       32.1447        2.6250        2.6649        2.6570        2.6486        2.6866     -999.2500     -999.2500        4.0958     -999.2500    11069.4170
      1149.1472       12.2500     -999.2500   -999.250000       88.4683      181.4854       32.9294        2.7659        2.7801        2.7675        2.7608        2.7861     -999.2500     -999.2500        4.5193     -999.2500    11303.4834
      1149.2996       12.2500     -999.2500   -999.250000       86.3961      180.5180       32.7045        2.7737        2.7654        2.7616        2.7648        2.7709     -999.2500     -999.2500        5.0626     -999.2500    11574.5957
      1149.4520       12.2500     -999.2500   -999.250000       85.6147      179.9754       32.0217        2.6899        2.6764        2.6832        2.6888        2.6732     -999.2500     -999.2500        6.1788     -999.2500    11680.2373
      1149.6044       12.2500     -999.2500   -999.250000       86.3808      181.3762       30.7856        2.5656        2.5528        2.5633        2.5676        2.5427     -999.2500     -999.2500        6.7796     -999.2500    11576.6465
      1149.7568       12.2500     -999.2500   -999.250000       89.7493      183.1659       29.5271        2.3713        2.3683        2.3768        2.3760        2.3545     -999.2500     -999.2500        7.8327     -999.2500    11142.1484
      1149.9092       12.2500     -999.2500   -999.250000       94.8896      187.0748       27.8837        2.2458        2.2730        2.2783        2.2683        2.2646     -999.2500     -999.2500        7.9023     -999.2500    10538.5625
      1150.0616       12.2500     -999.2500   -999.250000       97.0624      187.1288       27.4059        2.2876        2.3446        2.3489        2.3355        2.3573     -999.2500     -999.2500        7.9063     -999.2500    10302.6504
      1150.2140       12.2500     -999.2500   -999.250000       96.5064      185.3147       27.6175        2.4204        2.5016        2.5092        2.5009        2.5511     -999.2500     -999.2500        7.8346     -999.2500    10362.0068
      1150.3664       12.2500     -999.2500   -999.250000       96.1963      185.8090       29.5011        2.6036        2.6630        2.6670        2.6672        2.7189     -999.2500     -999.2500        7.7822     -999.2500    10395.4102
      1150.5188       12.2500     -999.2500   -999.250000       94.4821      185.9029       30.9368        2.7015        2.7121        2.7106        2.7184        2.7475     -999.2500     -999.2500        7.0880     -999.2500    10584.0156
      1150.6712       12.2500     -999.2500   -999.250000       91.5374      183.1032       30.0554        2.5770        2.5529        2.5450        2.5444        2.5360     -999.2500     -999.2500        5.7152     -999.2500    10924.4961
      1150.8236       12.2500     -999.2500   -999.250000       89.6366      179.5217       27.5321        2.2684        2.2380        2.2255        2.2144        2.1881     -999.2500     -999.2500        5.7985     -999.2500    11156.1572
      1150.9760       12.2500     -999.2500   -999.250000       90.2157      178.3690       24.7902        1.9964        1.9901        1.9848        1.9701        1.9451     -999.2500     -999.2500        5.6512     -999.2500    11084.5449
      1151.1284       12.2500     -999.2500   -999.250000       91.8349      178.8038       23.3342        1.8536        1.8730        1.8801        1.8706        1.8568     -999.2500     -999.2500        4.7881     -999.2500    10889.1064
      1151.2808       12.2500     -999.2500   -999.250000       92.2755      179.2075       23.0773        1.7803        1.8163        1.8373        1.8405        1.8414     -999.2500     -999.2500        4.2099     -999.2500    10837.1133
      1151.4332       12.2500     -999.2500   -999.250000       91.2168      179.0060       23.7724        1.7455        1.7729        1.7917        1.8006        1.8082     -999.2500     -999.2500        3.8325     -999.2500    10962.8936
      1151.5856       12.2500     -999.2500   -999.250000       90.1406      178.9732       24.4287        1.7112        1.7227        1.7319        1.7397        1.7486     -999.2500     -999.2500        3.4839     -999.2500    11093.7803
      1151.7380       12.2500     -999.2500   -999.250000       89.5063      178.9552       24.3371        1.7094        1.7160        1.7174        1.7225        1.7369     -999.2500     -999.2500        3.5860     -999.2500    11172.3975
      1151.8904       12.2500     -999.2500   -999.250000       89.5554      178.7882       23.4921        1.7846        1.8068        1.8108        1.8124        1.8298     -999.2500     -999.2500        3.7106     -999.2500    11166.2725
      1152.0428       12.2500     -999.2500   -999.250000       89.3491      178.2479       23.4088        1.9716        2.0102        2.0169        2.0154        2.0379     -999.2500     -999.2500        3.8153     -999.2500    11192.0547
      1152.1952       12.2500     -999.2500   -999.250000       88.7751      177.3976       24.3114        2.2206        2.2493        2.2476        2.2463        2.2760     -999.2500     -999.2500        3.8296     -999.2500    11264.4199
      1152.3476       12.2500     -999.2500   -999.250000       88.9265      178.0752       25.4557        2.3989        2.4047        2.3942        2.3921        2.4147     -999.2500     -999.2500        3.8921     -999.2500    11245.2422
      1152.5000       12.2500     -999.2500   -999.250000       88.9013      179.3878       25.9506        2.4265        2.4223        2.4082        2.3997        2.4063     -999.2500     -999.2500        4.1133     -999.2500    11248.4297
      1152.6524       12.2500     -999.2500   -999.250000       87.8689      177.0051       26.0308        2.4120        2.4093        2.4001        2.3859        2.3731     -999.2500     -999.2500        4.6023     -999.2500    11380.5918
      1152.8048       12.2500     -999.2500   -999.250000       85.9150      174.9062       25.8025        2.3266        2.3300        2.3361        2.3297        2.3082     -999.2500     -999.2500        5.3133     -999.2500    11639.4111
      1152.9572       12.2500     -999.2500   -999.250000       83.1960      173.3434       24.7114        2.1417        2.1488        2.1657        2.1702        2.1523     -999.2500     -999.2500        6.7614     -999.2500    12019.8086
      1153.1096       12.2500     -999.2500   -999.250000       82.7025      172.7048       23.1501        2.0039        2.0089        2.0200        2.0251        2.0178     -999.2500     -999.2500        8.2821     -999.2500    12091.5332
      1153.2620       12.2500     -999.2500   -999.250000       83.9240      174.8820       22.5118        1.9528        1.9675        1.9749        1.9743        1.9727     -999.2500     -999.2500        8.2889     -999.2500    11915.5420
