~Version Information Block
VERS .                 2.00:  CWLS LOG ASCII STANDARD - VERSION 2.00
WRAP .                   NO:  One line per depth step
~Well Information Block
#MNEM.UNIT        Data Type   Information
#---------- ----------------  -----------
STRT .M                 200:  START DEPTH
STOP .M           1985.0612:  STOP DEPTH
STEP .M                   0:  STEP
NULL .              -999.25:  NULL VALUE
COMP .                     :  COMPANY
WELL .          AUDACIOUS-5:  WELL
FLD  .                     :  FIELD
LOC  .     X = 730542.3900 Y = 8704837.7300:  LOCATION
PROV .                     :  PROVINCE
UWI  .                     :  UNIQUE WELL ID
SRVC .                     :  SERVICE COMPANY
DATE .                     :  LOG DATE
~Curve Information Block
#MNEM.UNIT         API CODE   Curve Description
#---------- ----------------  -----------------
DEPTH.M                    :  
BS   .IN                   :  
CAL  .IN                   :  
DRHO .G/C3                 :  
DTCO .US/F                 :  
DTSM .US/F                 :  
GR   .GAPI                 :  
P16H .OHMM                 :  
P22H .OHMM                 :  
P28H .OHMM                 :  
P34H .OHMM                 :  
P40H .OHMM                 :  
PEF  .B/E                  :  
RHOB .G/C3                 :  
ROP  .M/HR                 :  
TNPH .V/V                  :  
VEL  .F/S                  :  
~Parameter Information Block
#MNEM.UNIT            Value   Description
#---------- ----------------  -----------
SET  .                 WIRE:  
DIRECTIONAL_SET.                  DEV:  Preferred directional survey set
DRIL .M                1985:  
ELEV .M                24.7:  KELLY BUSHING ELEVATION
EPD  .M                   0:  PERMANENT DATUM ELEVATION
LATI .         11 42 29.883:  
LONG .         125 6 54.411:  
MEAS .                   RT:  
SURF .M                   0:  GROUND LEVEL ELEVATION
WELL_NAME.          AUDACIOUS-5:  WELL NAME
XOFFSET_BOTTOM.M     -19.32275334907:  
X_LO .M          730542.387:  
YOFFSET_BOTTOM.M     -6.744868576516:  
Y_LO .M         8704837.734:  
~Other Information Block
~A        DEPTH             BS            CAL           DRHO           DTCO           DTSM             GR           P16H           P22H           P28H           P34H           P40H            PEF           RHOB            ROP           TNPH            VEL 
# ...
       319.1768       12.2500     -999.2500   -999.250000       90.4345     -999.2500       73.1402        3.0892        3.0251        2.9485        2.8493        2.7455     -999.2500     -999.2500       18.0480     -999.2500    11057.7266
       319.3292       12.2500     -999.2500   -999.250000       97.6755     -999.2500       72.5898        3.0431        3.0235        2.9556        2.8585        2.7805     -999.2500     -999.2500       22.3126     -999.2500    10237.9824
       319.4816       12.2500     -999.2500   -999.250000       89.5021     -999.2500       71.0500        3.1344        3.1409        3.0848        2.9949        2.9338     -999.2500     -999.2500       24.7621     -999.2500    11172.9229
       319.6340       12.2500     -999.2500   -999.250000       86.3574     -999.2500       69.0113        3.4045        3.3967        3.3451        3.2746        3.2277     -999.2500     -999.2500       26.3977     -999.2500    11579.7832
       319.7864       12.2500     -999.2500   -999.250000       89.7432     -999.2500       67.7858        3.7530        3.6747        3.6051        3.5436        3.4864     -999.2500     -999.2500       28.5321     -999.2500    11142.9053
       319.9388       12.2500     -999.2500   -999.250000       97.8598     -999.2500       66.0812        3.8394        3.7249        3.6438        3.5782        3.5039     -999.2500     -999.2500       29.6781     -999.2500    10218.7002
       320.0912       12.2500     -999.2500   -999.250000       95.1291     -999.2500       64.7706        3.9098        3.7789        3.6895        3.6120        3.5174     -999.2500     -999.2500       30.8768     -999.2500    10512.0312
       320.2436       12.2500     -999.2500   -999.250000       95.8140     -999.2500       63.9893        4.0855        3.9709        3.8711        3.7625        3.6413     -999.2500     -999.2500       32.3938     -999.2500    10436.8877
       320.3960       12.2500     -999.2500   -999.250000       91.6563     -999.2500       64.0358        4.3441        4.2541        4.1509        4.0321        3.9178     -999.2500     -999.2500       33.7460     -999.2500    10910.3242
       320.5484       12.2500     -999.2500   -999.250000      100.6263     -999.2500       64.7439        4.5706        4.4788        4.3789        4.2870        4.2157     -999.2500     -999.2500       35.4781     -999.2500     9937.7598
       320.7008       12.2500     -999.2500   -999.250000       91.8341     -999.2500       66.9613        4.9218        4.8194        4.7140        4.6296        4.5746     -999.2500     -999.2500       36.7744     -999.2500    10889.2012
       320.8532       12.2500     -999.2500   -999.250000       93.0908     -999.2500       69.6729        5.6010        5.4563        5.3348        5.2610        5.2223     -999.2500     -999.2500       37.0833     -999.2500    10742.2002
       321.0056       12.2500     -999.2500   -999.250000       94.7196     -999.2500       72.6302        6.3436        6.1163        5.9621        5.8703        5.7923     -999.2500     -999.2500       39.0488     -999.2500    10557.4775
       321.1580       12.2500     -999.2500   -999.250000       96.3510     -999.2500       74.1919        7.1861        6.9139        6.7456        6.6029        6.4208     -999.2500     -999.2500       42.7015     -999.2500    10378.7197
       321.3104       12.2500     -999.2500   -999.250000       99.9306     -999.2500       74.6179        7.9895        7.6991        7.4962        7.3027        7.0752     -999.2500     -999.2500       43.3903     -999.2500    10006.9443
       321.4628       12.2500     -999.2500   -999.250000      103.8545     -999.2500       73.0725        8.4539        8.1379        7.9158        7.7227        7.5108     -999.2500     -999.2500       43.8976     -999.2500     9628.8555
       321.6152       12.2500     -999.2500   -999.250000      103.8577     -999.2500       71.6511        8.9767        8.7653        8.5843        8.4048        8.2269     -999.2500     -999.2500       45.4313     -999.2500     9628.5596
       321.7676       12.2500     -999.2500   -999.250000      103.8082     -999.2500       70.7920        8.9574        8.9712        8.9053        8.7796        8.6704     -999.2500     -999.2500       47.2407     -999.2500     9633.1504
       321.9200       12.2500     -999.2500   -999.250000      103.4929     -999.2500       71.9472        9.5773        9.4844        9.3608        9.2012        9.0451     -999.2500     -999.2500       47.2629     -999.2500     9662.4990
       322.0724       12.2500     -999.2500   -999.250000      105.5945     -999.2500       73.6468       10.3969       10.1535        9.9513        9.7803        9.6241     -999.2500     -999.2500       46.4573     -999.2500     9470.1904
       322.2248       12.2500     -999.2500   -999.250000      107.7335     -999.2500       76.4813       10.6696       10.3950       10.1719        9.9712        9.7755     -999.2500     -999.2500       44.8930     -999.2500     9282.1641
       322.3772       12.2500     -999.2500   -999.250000      109.2833     -999.2500       79.5504       10.4456       10.3144       10.0992        9.8368        9.6245     -999.2500     -999.2500       42.2028     -999.2500     9150.5283
       322.5296       12.2500     -999.2500   -999.250000      109.7669     -999.2500       83.1377       10.3748       10.3430       10.1161        9.8132        9.6203     -999.2500     -999.2500       40.8829     -999.2500     9110.2148
       322.6820       12.2500     -999.2500   -999.250000      109.7884     -999.2500       85.4592       10.4164       10.4200       10.1709        9.8792        9.7686     -999.2500     -999.2500       39.1731     -999.2500     9108.4307
       322.8344       12.2500     -999.2500   -999.250000      109.7604     -999.2500       86.6918       10.7180       10.6603       10.3496       10.0548        9.9931     -999.2500     -999.2500       36.6918     -999.2500     9110.7539
       322.9868       12.2500     -999.2500   -999.250000      110.0336     -999.2500       88.0932       11.2323       11.0433       10.6228       10.2512       10.1294     -999.2500     -999.2500       32.0778     -999.2500     9088.1328
       323.1392       12.2500     -999.2500   -999.250000      111.8386     -999.2500       89.6003       11.2562       10.9973       10.5284       10.1295        9.9881     -999.2500     -999.2500       26.8859     -999.2500     8941.4570
       323.2916       12.2500     -999.2500   -999.250000      109.2381     -999.2500       89.9935       11.1307       10.6788       10.1878        9.8144        9.6355     -999.2500     -999.2500       19.1854     -999.2500     9154.3154
       323.4440       12.2500     -999.2500   -999.250000       99.0620     -999.2500       88.0427       10.8949       10.3592        9.8905        9.5564        9.3630     -999.2500     -999.2500       17.8376     -999.2500    10094.6885
       323.5964       12.2500     -999.2500   -999.250000       99.1156     -999.2500       84.9764       10.2164        9.7470        9.3526        9.0428        8.7989     -999.2500     -999.2500       16.6655     -999.2500    10089.2295
       323.7488       12.2500     -999.2500   -999.250000      101.5191     -999.2500       81.0910        9.1458        8.7277        8.4295        8.1664        7.8858     -999.2500     -999.2500       16.1363     -999.2500     9850.3633
       323.9012       12.2500     -999.2500   -999.250000      101.9497     -999.2500       76.6153        8.0284        7.7487        7.5355        7.3104        7.0542     -999.2500     -999.2500       16.1363     -999.2500     9808.7588
       324.0536       12.2500     -999.2500   -999.250000      102.3654     -999.2500       72.0224        6.8014        6.7179        6.6179        6.4702        6.3059     -999.2500     -999.2500       21.6035     -999.2500     9768.9258
       324.2060       12.2500     -999.2500   -999.250000      104.9312     -999.2500       67.9383        5.6719        5.6939        5.6430        5.5397        5.4541     -999.2500     -999.2500       35.2849     -999.2500     9530.0537
