~Version Information Block
VERS .                 2.00:  CWLS LOG ASCII STANDARD - VERSION 2.00
WRAP .                   NO:  One line per depth step
~Well Information Block
#MNEM.UNIT        Data Type   Information
#---------- ----------------  -----------
STRT .M                 200:  START DEPTH
STOP .M           1985.0612:  STOP DEPTH
STEP .M                   0:  STEP
NULL .              -999.25:  NULL VALUE
COMP .                     :  COMPANY
WELL .          AUDACIOUS-5:  WELL
FLD  .                     :  FIELD
LOC  .     X = 730542.3900 Y = 8704837.7300:  LOCATION
PROV .                     :  PROVINCE
UWI  .                     :  UNIQUE WELL ID
SRVC .                     :  SERVICE COMPANY
DATE .                     :  LOG DATE
~Curve Information Block
#MNEM.UNIT         API CODE   Curve Description
#---------- ----------------  -----------------
DEPTH.M                    :  
BS   .IN                   :  
CAL  .IN                   :  
DRHO .G/C3                 :  
DTCO .US/F                 :  
DTSM .US/F                 :  
GR   .GAPI                 :  
P16H .OHMM                 :  
P22H .OHMM                 :  
P28H .OHMM                 :  
P34H .OHMM                 :  
P40H .OHMM                 :  
PEF  .B/E                  :  
RHOB .G/C3                 :  
ROP  .M/HR                 :  
TNPH .V/V                  :  
VEL  .F/S                  :  
~Parameter Information Block
#MNEM.UNIT            Value   Description
#---------- ----------------  -----------
SET  .                 WIRE:  
DIRECTIONAL_SET.                  DEV:  Preferred directional survey set
DRIL .M                1985:  
ELEV .M                24.7:  KELLY BUSHING ELEVATION
EPD  .M                   0:  PERMANENT DATUM ELEVATION
LATI .         11 42 29.883:  
LONG .         125 6 54.411:  
MEAS .                   RT:  
SURF .M                   0:  GROUND LEVEL ELEVATION
WELL_NAME.          AUDACIOUS-5:  WELL NAME
XOFFSET_BOTTOM.M     -19.32275334907:  
X_LO .M          730542.387:  
YOFFSET_BOTTOM.M     -6.744868576516:  
Y_LO .M         8704837.734:  
~Other Information Block
~A        DEPTH             BS            CAL           DRHO           DTCO           DTSM             GR           P16H           P22H           P28H           P34H           P40H            PEF           RHOB            ROP           TNPH            VEL 
# ...
      1863.2936        8.5000        8.5674      0.087700      101.9081     -999.2500       57.2926        1.6819        1.6718        1.6701        1.6792        1.6910        3.2743        2.4887       21.8581        0.2109     9812.7627
      1863.4460        8.5000        8.5959      0.093800      100.9350     -999.2500       56.1586        1.7190        1.7239        1.7285        1.7281        1.7228        3.2869        2.4972       22.1795        0.2066     9907.3662
      1863.5984        8.5000        8.6039      0.097300      100.8491     -999.2500       56.5458        1.7282        1.7295        1.7323        1.7289        1.7175        3.2903        2.5020       22.8948        0.2050     9915.8047
      1863.7508        8.5000        8.5921      0.098400      100.0293     -999.2500       55.6310        1.7736        1.7501        1.7424        1.7406        1.7292        3.3002        2.5015       23.5813        0.2168     9997.0713
      1863.9032        8.5000        8.6096      0.100400       98.2442     -999.2500       53.0425        1.8843        1.8383        1.8242        1.8262        1.8139        3.3429        2.4994       24.5461        0.2134    10178.7178
      1864.0556        8.5000        8.5916      0.103400       96.3153     -999.2500       50.0592        2.0309        1.9835        1.9720        1.9776        1.9661        3.4262        2.5061       22.3782        0.1878    10382.5664
      1864.2080        8.5000        8.5806      0.099200       95.8422     -999.2500       49.6812        2.0995        2.0775        2.0673        2.0674        2.0666        3.4453        2.5010       17.5530        0.2028    10433.8174
      1864.3604        8.5000        8.5749      0.095600       97.1092     -999.2500       52.4188        1.9717        1.9817        1.9744        1.9707        1.9879        3.4161        2.4957       15.9186        0.2238    10297.6855
      1864.5128        8.5000        8.5967      0.095300       99.4937     -999.2500       55.2567        1.7506        1.7481        1.7379        1.7376        1.7553        3.3482        2.4868       15.8861        0.2210    10050.8877
      1864.6652        8.5000        8.6277      0.100500      101.4237     -999.2500       57.1721        1.6885        1.6746        1.6594        1.6564        1.6671        3.3319        2.4902       15.4788        0.2225     9859.6289
      1864.8176        8.5000        8.6107      0.100200      102.5497     -999.2500       58.2447        1.6941        1.6838        1.6772        1.6785        1.6841        3.3489        2.4920       15.2130        0.2064     9751.3691
      1864.9700        8.5000        8.5853      0.099700      103.1833     -999.2500       60.0346        1.6804        1.6794        1.6839        1.6919        1.6978        3.3557        2.4931       15.0126        0.2415     9691.4912
      1865.1224        8.5000        8.5888      0.101700      102.6439     -999.2500       59.7188        1.6762        1.6699        1.6778        1.6901        1.6924        3.3464        2.4922       14.7817        0.2461     9742.4199
      1865.2748        8.5000        8.6138      0.104900      101.6628     -999.2500       55.9862        1.7491        1.7346        1.7375        1.7423        1.7315        3.3262        2.4945       14.2835        0.2231     9836.4395
      1865.4272        8.5000        8.6191      0.103600       99.8902     -999.2500       50.3913        1.8847        1.8644        1.8637        1.8626        1.8417        3.3146        2.4960       14.0362        0.2064    10010.9922
      1865.5796        8.5000        8.6299      0.105900       97.4382     -999.2500       45.9941        2.0696        2.0419        2.0379        2.0352        2.0103        3.3676        2.5037       15.5736        0.1898    10262.9150
      1865.7320        8.5000        8.6267      0.103400       94.4303     -999.2500       44.0797        2.2083        2.1650        2.1505        2.1484        2.1314        3.4042        2.5020       17.9252        0.1824    10589.8213
      1865.8844        8.5000        8.6393      0.105200       91.5189     -999.2500       43.0931        2.3435        2.2818        2.2542        2.2567        2.2583        3.4769        2.5063       19.1792        0.1785    10926.7051
      1866.0368        8.5000        8.5907      0.094600       91.1595     -999.2500       43.1717        2.4166        2.3738        2.3556        2.3692        2.3927        3.6049        2.5011       19.3204        0.1959    10969.7842
      1866.1892        8.5000        8.5718      0.093600       92.2523     -999.2500       45.3040        2.2668        2.2795        2.2785        2.2945        2.3425        3.6190        2.5018       19.0077        0.1829    10839.8389
      1866.3416        8.5000        8.5653      0.090800       94.3181     -999.2500       48.9751        2.0661        2.0923        2.0943        2.1014        2.1386        3.5816        2.4937       18.6461        0.2061    10602.4189
      1866.4940        8.5000        8.5803      0.095100       98.0470     -999.2500       53.8957        1.9238        1.9407        1.9412        1.9420        1.9592        3.4184        2.4930       17.7484        0.2060    10199.1904
      1866.6464        8.5000        8.5921      0.093400      100.3487     -999.2500       57.4668        1.8364        1.8216        1.8162        1.8140        1.8057        3.4276        2.4912       17.0380        0.2087     9965.2510
      1866.7988        8.5000        8.5762      0.089700      100.5977     -999.2500       59.3265        1.9326        1.8943        1.8871        1.8887        1.8690        3.3726        2.4942       16.9164        0.2164     9940.5850
      1866.9512        8.5000        8.5824      0.089300       99.6696     -999.2500       56.1742        2.0667        2.0265        2.0250        2.0340        2.0153        3.3717        2.4996       17.0000        0.1854    10033.1494
      1867.1036        8.5000        8.5732      0.085900       96.9232     -999.2500       51.3692        2.1922        2.1559        2.1569        2.1723        2.1655        3.3824        2.4995       18.0483        0.2096    10317.4473
      1867.2560        8.5000        8.5705      0.089700       94.4373     -999.2500       47.6373        2.2754        2.2422        2.2349        2.2481        2.2567        3.4356        2.5063       18.3528        0.1988    10589.0361
      1867.4084        8.5000        8.5450      0.082600       93.9368     -999.2500       48.3329        2.2529        2.2333        2.2198        2.2249        2.2432        3.4549        2.4981       17.1727        0.1862    10645.4551
      1867.5608        8.5000        8.4886      0.076500       94.4869     -999.2500       49.3241        2.1919        2.1780        2.1613        2.1600        2.1775        3.4880        2.4895       16.7907        0.1828    10583.4775
      1867.7132        8.5000        8.4784      0.070200       95.2263     -999.2500       50.1995        2.1456        2.1435        2.1320        2.1284        2.1422        3.5132        2.4785       16.7462        0.1925    10501.2998
      1867.8656        8.5000        8.4991      0.072200       96.1402     -999.2500       50.8717        2.0761        2.0711        2.0670        2.0677        2.0720        3.4768        2.4761       16.6471        0.2098    10401.4766
      1868.0180        8.5000        8.5003      0.074300       96.6424     -999.2500       51.2907        2.0558        2.0370        2.0359        2.0441        2.0440        3.4250        2.4772       16.7665        0.2123    10347.4248
      1868.1704        8.5000        8.5101      0.073800       97.2557     -999.2500       50.9831        2.1253        2.1024        2.0984        2.1059        2.1064        3.3285        2.4762       17.1453        0.2135    10282.1738
      1868.3228        8.5000        8.4959      0.069100       96.9988     -999.2500       49.9370        2.1518        2.1316        2.1307        2.1386        2.1365        3.2751        2.4738       17.0392        0.2021    10309.4053
