~Version Information Block
VERS .                 2.00:  CWLS LOG ASCII STANDARD - VERSION 2.00
WRAP .                   NO:  One line per depth step
~Well Information Block
#MNEM.UNIT        Data Type   Information
#---------- ----------------  -----------
STRT .M                 200:  START DEPTH
STOP .M           1985.0612:  STOP DEPTH
STEP .M                   0:  STEP
NULL .              -999.25:  NULL VALUE
COMP .                     :  COMPANY
WELL .          AUDACIOUS-5:  WELL
FLD  .                     :  FIELD
LOC  .     X = 730542.3900 Y = 8704837.7300:  LOCATION
PROV .                     :  PROVINCE
UWI  .                     :  UNIQUE WELL ID
SRVC .                     :  SERVICE COMPANY
DATE .                     :  LOG DATE
~Curve Information Block
#MNEM.UNIT         API CODE   Curve Description
#---------- ----------------  -----------------
DEPTH.M                    :  
BS   .IN                   :  
CAL  .IN                   :  
DRHO .G/C3                 :  
DTCO .US/F                 :  
DTSM .US/F                 :  
GR   .GAPI                 :  
P16H .OHMM                 :  
P22H .OHMM                 :  
P28H .OHMM                 :  
P34H .OHMM                 :  
P40H .OHMM                 :  
PEF  .B/E                  :  
RHOB .G/C3                 :  
ROP  .M/HR                 :  
TNPH .V/V                  :  
VEL  .F/S                  :  
~Parameter Information Block
#MNEM.UNIT            Value   Description
#---------- ----------------  -----------
SET  .                 WIRE:  
DIRECTIONAL_SET.                  DEV:  Preferred directional survey set
DRIL .M                1985:  
ELEV .M                24.7:  KELLY BUSHING ELEVATION
EPD  .M                   0:  PERMANENT DATUM ELEVATION
LATI .         11 42 29.883:  
LONG .         125 6 54.411:  
MEAS .                   RT:  
SURF .M                   0:  GROUND LEVEL ELEVATION
WELL_NAME.          AUDACIOUS-5:  WELL NAME
XOFFSET_BOTTOM.M     -19.32275334907:  
X_LO .M          730542.387:  
YOFFSET_BOTTOM.M     -6.744868576516:  
Y_LO .M         8704837.734:  
~Other Information Block
~A        DEPTH             BS            CAL           DRHO           DTCO           DTSM             GR           P16H           P22H           P28H           P34H           P40H            PEF           RHOB            ROP           TNPH            VEL 
# ...
       557.5304       12.2500     -999.2500   -999.250000      106.7010     -999.2500       27.0269        2.0204        2.0456        2.0549        2.0535        2.0575     -999.2500     -999.2500       51.1585     -999.2500     9371.9834
       557.6828       12.2500     -999.2500   -999.250000      106.2144     -999.2500       27.6995        2.0273        2.0596        2.0740        2.0776        2.0884     -999.2500     -999.2500       54.2904     -999.2500     9414.9189
       557.8352       12.2500     -999.2500   -999.250000      105.1176     -999.2500       28.5825        2.0507        2.0730        2.0833        2.0877        2.0985     -999.2500     -999.2500       59.1647     -999.2500     9513.1553
       557.9876       12.2500     -999.2500   -999.250000      104.1368     -999.2500       29.4419        2.0848        2.0968        2.1004        2.1050        2.1191     -999.2500     -999.2500       62.7741     -999.2500     9602.7529
       558.1400       12.2500     -999.2500   -999.250000      104.4857     -999.2500       29.7961        2.1092        2.1297        2.1356        2.1364        2.1466     -999.2500     -999.2500       66.7043     -999.2500     9570.6875
       558.2924       12.2500     -999.2500   -999.250000      105.4536     -999.2500       30.2043        2.1923        2.2140        2.2210        2.2213        2.2294     -999.2500     -999.2500       67.1846     -999.2500     9482.8438
       558.4448       12.2500     -999.2500   -999.250000      106.2957     -999.2500       30.6334        2.2646        2.2876        2.2958        2.2982        2.3094     -999.2500     -999.2500       66.7198     -999.2500     9407.7188
       558.5972       12.2500     -999.2500   -999.250000      107.0659     -999.2500       31.1656        2.3717        2.3960        2.3997        2.3994        2.4156     -999.2500     -999.2500       65.7870     -999.2500     9340.0420
       558.7496       12.2500     -999.2500   -999.250000      107.1343     -999.2500       32.2024        2.4580        2.4801        2.4814        2.4790        2.4930     -999.2500     -999.2500       64.8086     -999.2500     9334.0791
       558.9020       12.2500     -999.2500   -999.250000      107.0527     -999.2500       34.5153        2.5754        2.5921        2.5882        2.5790        2.5843     -999.2500     -999.2500       63.1837     -999.2500     9341.1943
       559.0544       12.2500     -999.2500   -999.250000      107.2632     -999.2500       38.0755        2.6440        2.6522        2.6423        2.6320        2.6386     -999.2500     -999.2500       59.4888     -999.2500     9322.8623
       559.2068       12.2500     -999.2500   -999.250000      107.5253     -999.2500       42.1598        2.6629        2.6708        2.6645        2.6570        2.6621     -999.2500     -999.2500       54.4115     -999.2500     9300.1367
       559.3592       12.2500     -999.2500   -999.250000      107.8711     -999.2500       45.0706        2.6410        2.6501        2.6528        2.6498        2.6473     -999.2500     -999.2500       47.8246     -999.2500     9270.3232
       559.5116       12.2500     -999.2500   -999.250000      107.8923     -999.2500       44.8976        2.5973        2.6049        2.6121        2.6120        2.6049     -999.2500     -999.2500       36.1138     -999.2500     9268.5020
       559.6640       12.2500     -999.2500   -999.250000      106.8074     -999.2500       42.0903        2.5322        2.5383        2.5440        2.5436        2.5374     -999.2500     -999.2500       26.8940     -999.2500     9362.6465
       559.8164       12.2500     -999.2500   -999.250000      104.5674     -999.2500       37.7866        2.3879        2.3933        2.3959        2.3955        2.3946     -999.2500     -999.2500       23.9421     -999.2500     9563.2100
       559.9688       12.2500     -999.2500   -999.250000      103.7751     -999.2500       35.4198        2.2949        2.3131        2.3181        2.3158        2.3193     -999.2500     -999.2500       23.7507     -999.2500     9636.2227
       560.1212       12.2500     -999.2500   -999.250000      104.4710     -999.2500       35.4603        2.2581        2.2901        2.2968        2.2918        2.3001     -999.2500     -999.2500       30.8722     -999.2500     9572.0342
       560.2736       12.2500     -999.2500   -999.250000      104.9386     -999.2500       36.4107        2.2509        2.2920        2.3012        2.2963        2.3092     -999.2500     -999.2500       80.5590     -999.2500     9529.3818
       560.4260       12.2500     -999.2500   -999.250000      105.8543     -999.2500       36.4147        2.2701        2.3023        2.3072        2.3024        2.3151     -999.2500     -999.2500      137.5865     -999.2500     9446.9473
       560.5784       12.2500     -999.2500   -999.250000      106.3295     -999.2500       34.3738        2.2654        2.2830        2.2833        2.2815        2.2945     -999.2500     -999.2500       98.9535     -999.2500     9404.7275
       560.7308       12.2500     -999.2500   -999.250000      105.8613     -999.2500       32.4866        2.2180        2.2238        2.2235        2.2235        2.2298     -999.2500     -999.2500       70.8527     -999.2500     9446.3232
       560.8832       12.2500     -999.2500   -999.250000      104.8727     -999.2500       30.6997        2.1236        2.1210        2.1160        2.1113        2.1092     -999.2500     -999.2500       62.0107     -999.2500     9535.3701
       561.0356       12.2500     -999.2500   -999.250000      104.4522     -999.2500       30.9465        2.0307        2.0343        2.0300        2.0238        2.0235     -999.2500     -999.2500       60.6260     -999.2500     9573.7568
       561.1880       12.2500     -999.2500   -999.250000      105.1675     -999.2500       31.7003        2.0100        2.0168        2.0158        2.0138        2.0183     -999.2500     -999.2500       62.8871     -999.2500     9508.6406
       561.3404       12.2500     -999.2500   -999.250000      105.7770     -999.2500       32.6116        1.9882        2.0062        2.0126        2.0135        2.0204     -999.2500     -999.2500       65.9240     -999.2500     9453.8506
       561.4928       12.2500     -999.2500   -999.250000      106.3414     -999.2500       33.2288        1.9962        2.0156        2.0244        2.0276        2.0353     -999.2500     -999.2500       67.4816     -999.2500     9403.6758
       561.6452       12.2500     -999.2500   -999.250000      106.8243     -999.2500       33.7256        2.0079        2.0197        2.0266        2.0317        2.0398     -999.2500     -999.2500       65.5601     -999.2500     9361.1660
       561.7976       12.2500     -999.2500   -999.250000      107.0928     -999.2500       34.3039        2.0196        2.0239        2.0231        2.0234        2.0300     -999.2500     -999.2500       55.7573     -999.2500     9337.6963
       561.9500       12.2500     -999.2500   -999.250000      107.1618     -999.2500       34.9042        2.0504        2.0610        2.0596        2.0559        2.0618     -999.2500     -999.2500       44.6961     -999.2500     9331.6836
       562.1024       12.2500     -999.2500   -999.250000      107.3280     -999.2500       35.2070        2.1126        2.1341        2.1354        2.1291        2.1350     -999.2500     -999.2500       45.6984     -999.2500     9317.2324
       562.2548       12.2500     -999.2500   -999.250000      107.5529     -999.2500       34.0809        2.2522        2.2818        2.2843        2.2753        2.2817     -999.2500     -999.2500       49.1164     -999.2500     9297.7500
       562.4072       12.2500     -999.2500   -999.250000      107.7976     -999.2500       32.3884        2.4535        2.4727        2.4736        2.4719        2.4857     -999.2500     -999.2500       51.4943     -999.2500     9276.6445
       562.5596       12.2500     -999.2500   -999.250000      107.9771     -999.2500       32.2534        2.5345        2.5391        2.5337        2.5301        2.5380     -999.2500     -999.2500       53.5541     -999.2500     9261.2236
